{"type":"FeatureCollection","features":[{"type":"Feature","geometry":{"type":"Point","coordinates":[116.163167,39.92362]},"properties":{"pname":"S1线","pshort":"S1线","color":"B35A1F","ls":"900000069871","name":"金安桥","en":"jin an qiao"}},{"type":"Feature","geometry":{"type":"Point","coordinates":[116.13401,39.91603]},"properties":{"pname":"S1线","pshort":"S1线","color":"B35A1F","ls":"900000069871","name":"四道桥","en":"si dao qiao"}},{"type":"Feature","geometry":{"type":"Point","coordinates":[116.125809,39.912383]},"properties":{"pname":"S1线","pshort":"S1线","color":"B35A1F","ls":"900000069871","name":"桥户营","en":"qiao hu ying"}},{"type":"Feature","geometry":{"type":"Point","coordinates":[116.122225,39.905138]},"properties":{"pname":"S1线","pshort":"S1线","color":"B35A1F","ls":"900000069871","name":"上岸","en":"shang an"}},{"type":"Feature","geometry":{"type":"Point","coordinates":[116.123254,39.89578]},"properties":{"pname":"S1线","pshort":"S1线","color":"B35A1F","ls":"900000069871","name":"栗园庄","en":"li yuan zhuang"}},{"type":"Feature","geometry":{"type":"Point","coordinates":[116.114443,39.890465]},"properties":{"pname":"S1线","pshort":"S1线","color":"B35A1F","ls":"900000069871","name":"小园","en":"xiao yuan"}},{"type":"Feature","geometry":{"type":"Point","coordinates":[116.100334,39.889378]},"properties":{"pname":"S1线","pshort":"S1线","color":"B35A1F","ls":"900000069871","name":"石厂","en":"shi chang"}},{"type":"Feature","geometry":{"type":"Point","coordinates":[116.177388,39.926727]},"properties":{"pname":"地铁1号线","pshort":"1号线","color":"CC0000","ls":"110100023110","name":"苹果园","en":"ping guo yuan"}},{"type":"Feature","geometry":{"type":"Point","coordinates":[116.190337,39.90745]},"properties":{"pname":"地铁1号线","pshort":"1号线","color":"CC0000","ls":"110100023110","name":"古城","en":"gu cheng"}},{"type":"Feature","geometry":{"type":"Point","coordinates":[116.212684,39.907442]},"properties":{"pname":"地铁1号线","pshort":"1号线","color":"CC0000","ls":"110100023110","name":"八角游乐园","en":"ba jiao you le yuan"}},{"type":"Feature","geometry":{"type":"Point","coordinates":[116.235948,39.90744]},"properties":{"pname":"地铁1号线","pshort":"1号线","color":"CC0000","ls":"110100023110","name":"八宝山","en":"ba bao shan"}},{"type":"Feature","geometry":{"type":"Point","coordinates":[116.252888,39.907433]},"properties":{"pname":"地铁1号线","pshort":"1号线","color":"CC0000","ls":"110100023110","name":"玉泉路","en":"yu quan lu"}},{"type":"Feature","geometry":{"type":"Point","coordinates":[116.273987,39.907456]},"properties":{"pname":"地铁1号线","pshort":"1号线","color":"CC0000","ls":"110100023110","name":"五棵松","en":"wu ke song"}},{"type":"Feature","geometry":{"type":"Point","coordinates":[116.294765,39.907474]},"properties":{"pname":"地铁1号线","pshort":"1号线","color":"CC0000","ls":"110100023110","name":"万寿路","en":"wan shou lu"}},{"type":"Feature","geometry":{"type":"Point","coordinates":[116.309919,39.907469]},"properties":{"pname":"地铁1号线","pshort":"1号线","color":"CC0000","ls":"110100023110","name":"公主坟","en":"gong zhu fen"}},{"type":"Feature","geometry":{"type":"Point","coordinates":[116.321459,39.907422]},"properties":{"pname":"地铁1号线","pshort":"1号线","color":"CC0000","ls":"110100023110","name":"军事博物馆","en":"jun shi bo wu guan"}},{"type":"Feature","geometry":{"type":"Point","coordinates":[116.337583,39.907379]},"properties":{"pname":"地铁1号线","pshort":"1号线","color":"CC0000","ls":"110100023110","name":"木樨地","en":"mu xi di"}},{"type":"Feature","geometry":{"type":"Point","coordinates":[116.352583,39.907234]},"properties":{"pname":"地铁1号线","pshort":"1号线","color":"CC0000","ls":"110100023110","name":"南礼士路","en":"nan li shi lu"}},{"type":"Feature","geometry":{"type":"Point","coordinates":[116.356866,39.907242]},"properties":{"pname":"地铁1号线","pshort":"1号线","color":"CC0000","ls":"110100023110","name":"复兴门","en":"fu xing men"}},{"type":"Feature","geometry":{"type":"Point","coordinates":[116.374072,39.907383]},"properties":{"pname":"地铁1号线","pshort":"1号线","color":"CC0000","ls":"110100023110","name":"西单","en":"xi dan"}},{"type":"Feature","geometry":{"type":"Point","coordinates":[116.391278,39.907472]},"properties":{"pname":"地铁1号线","pshort":"1号线","color":"CC0000","ls":"110100023110","name":"天安门西","en":"tian an men xi"}},{"type":"Feature","geometry":{"type":"Point","coordinates":[116.401216,39.90778]},"properties":{"pname":"地铁1号线","pshort":"1号线","color":"CC0000","ls":"110100023110","name":"天安门东","en":"tian an men dong"}},{"type":"Feature","geometry":{"type":"Point","coordinates":[116.411571,39.908069]},"properties":{"pname":"地铁1号线","pshort":"1号线","color":"CC0000","ls":"110100023110","name":"王府井","en":"wang fu jing"}},{"type":"Feature","geometry":{"type":"Point","coordinates":[116.41848,39.908325]},"properties":{"pname":"地铁1号线","pshort":"1号线","color":"CC0000","ls":"110100023110","name":"东单","en":"dong dan"}},{"type":"Feature","geometry":{"type":"Point","coordinates":[116.435806,39.908501]},"properties":{"pname":"地铁1号线","pshort":"1号线","color":"CC0000","ls":"110100023110","name":"建国门","en":"jian guo men"}},{"type":"Feature","geometry":{"type":"Point","coordinates":[116.450497,39.908454]},"properties":{"pname":"地铁1号线","pshort":"1号线","color":"CC0000","ls":"110100023110","name":"永安里","en":"yong an li"}},{"type":"Feature","geometry":{"type":"Point","coordinates":[116.461841,39.909104]},"properties":{"pname":"地铁1号线","pshort":"1号线","color":"CC0000","ls":"110100023110","name":"国贸","en":"guo mao"}},{"type":"Feature","geometry":{"type":"Point","coordinates":[116.475783,39.908287]},"properties":{"pname":"地铁1号线","pshort":"1号线","color":"CC0000","ls":"110100023110","name":"大望路","en":"da wang lu"}},{"type":"Feature","geometry":{"type":"Point","coordinates":[116.495456,39.908749]},"properties":{"pname":"地铁1号线","pshort":"1号线","color":"CC0000","ls":"110100023110","name":"四惠","en":"si hui"}},{"type":"Feature","geometry":{"type":"Point","coordinates":[116.515664,39.908495]},"properties":{"pname":"地铁1号线","pshort":"1号线","color":"CC0000","ls":"110100023110","name":"四惠东","en":"si hui dong"}},{"type":"Feature","geometry":{"type":"Point","coordinates":[116.373126,39.948653]},"properties":{"pname":"地铁2号线","pshort":"2号线","color":"0065B3","ls":"110100023098","name":"积水潭","en":"ji shui tan"}},{"type":"Feature","geometry":{"type":"Point","coordinates":[116.393776,39.948972]},"properties":{"pname":"地铁2号线","pshort":"2号线","color":"0065B3","ls":"110100023098","name":"鼓楼大街","en":"gu lou da jie"}},{"type":"Feature","geometry":{"type":"Point","coordinates":[116.40824,39.94918]},"properties":{"pname":"地铁2号线","pshort":"2号线","color":"0065B3","ls":"110100023098","name":"安定门","en":"an ding men"}},{"type":"Feature","geometry":{"type":"Point","coordinates":[116.417069,39.949336]},"properties":{"pname":"地铁2号线","pshort":"2号线","color":"0065B3","ls":"110100023098","name":"雍和宫","en":"yong he gong"}},{"type":"Feature","geometry":{"type":"Point","coordinates":[116.435842,39.941626]},"properties":{"pname":"地铁2号线","pshort":"2号线","color":"0065B3","ls":"110100023098","name":"东直门","en":"dong zhi men"}},{"type":"Feature","geometry":{"type":"Point","coordinates":[116.434133,39.933801]},"properties":{"pname":"地铁2号线","pshort":"2号线","color":"0065B3","ls":"110100023098","name":"东四十条","en":"dong si shi tiao"}},{"type":"Feature","geometry":{"type":"Point","coordinates":[116.434584,39.924499]},"properties":{"pname":"地铁2号线","pshort":"2号线","color":"0065B3","ls":"110100023098","name":"朝阳门","en":"zhao yang men"}},{"type":"Feature","geometry":{"type":"Point","coordinates":[116.427287,39.904983]},"properties":{"pname":"地铁2号线","pshort":"2号线","color":"0065B3","ls":"110100023098","name":"北京站","en":"bei jing zhan"}},{"type":"Feature","geometry":{"type":"Point","coordinates":[116.417093,39.901063]},"properties":{"pname":"地铁2号线","pshort":"2号线","color":"0065B3","ls":"110100023098","name":"崇文门","en":"chong wen men"}},{"type":"Feature","geometry":{"type":"Point","coordinates":[116.397937,39.900192]},"properties":{"pname":"地铁2号线","pshort":"2号线","color":"0065B3","ls":"110100023098","name":"前门","en":"qian men"}},{"type":"Feature","geometry":{"type":"Point","coordinates":[116.384209,39.900098]},"properties":{"pname":"地铁2号线","pshort":"2号线","color":"0065B3","ls":"110100023098","name":"和平门","en":"he ping men"}},{"type":"Feature","geometry":{"type":"Point","coordinates":[116.374314,39.899765]},"properties":{"pname":"地铁2号线","pshort":"2号线","color":"0065B3","ls":"110100023098","name":"宣武门","en":"xuan wu men"}},{"type":"Feature","geometry":{"type":"Point","coordinates":[116.363355,39.899433]},"properties":{"pname":"地铁2号线","pshort":"2号线","color":"0065B3","ls":"110100023098","name":"长椿街","en":"chang chun jie"}},{"type":"Feature","geometry":{"type":"Point","coordinates":[116.356009,39.923686]},"properties":{"pname":"地铁2号线","pshort":"2号线","color":"0065B3","ls":"110100023098","name":"阜成门","en":"fu cheng men"}},{"type":"Feature","geometry":{"type":"Point","coordinates":[116.354357,39.932397]},"properties":{"pname":"地铁2号线","pshort":"2号线","color":"0065B3","ls":"110100023098","name":"车公庄","en":"che gong zhuang"}},{"type":"Feature","geometry":{"type":"Point","coordinates":[116.355426,39.940474]},"properties":{"pname":"地铁2号线","pshort":"2号线","color":"0065B3","ls":"110100023098","name":"西直门","en":"xi zhi men"}},{"type":"Feature","geometry":{"type":"Point","coordinates":[116.319932,39.670342]},"properties":{"pname":"地铁4号线大兴线","pshort":"4号线大兴线","color":"008187","ls":"110100023076","name":"天宫院","en":"tian gong yuan"}},{"type":"Feature","geometry":{"type":"Point","coordinates":[116.321662,39.68651]},"properties":{"pname":"地铁4号线大兴线","pshort":"4号线大兴线","color":"008187","ls":"110100023076","name":"生物医药基地","en":"sheng wu yi yao ji di"}},{"type":"Feature","geometry":{"type":"Point","coordinates":[116.319079,39.712387]},"properties":{"pname":"地铁4号线大兴线","pshort":"4号线大兴线","color":"008187","ls":"110100023076","name":"义和庄","en":"yi he zhuang"}},{"type":"Feature","geometry":{"type":"Point","coordinates":[116.332611,39.722966]},"properties":{"pname":"地铁4号线大兴线","pshort":"4号线大兴线","color":"008187","ls":"110100023076","name":"黄村火车站","en":"huang cun huo che zhan"}},{"type":"Feature","geometry":{"type":"Point","coordinates":[116.332631,39.731769]},"properties":{"pname":"地铁4号线大兴线","pshort":"4号线大兴线","color":"008187","ls":"110100023076","name":"黄村西大街","en":"huang cun xi da jie"}},{"type":"Feature","geometry":{"type":"Point","coordinates":[116.332513,39.742724]},"properties":{"pname":"地铁4号线大兴线","pshort":"4号线大兴线","color":"008187","ls":"110100023076","name":"清源路","en":"qing yuan lu"}},{"type":"Feature","geometry":{"type":"Point","coordinates":[116.332204,39.753458]},"properties":{"pname":"地铁4号线大兴线","pshort":"4号线大兴线","color":"008187","ls":"110100023076","name":"枣园","en":"zao yuan"}},{"type":"Feature","geometry":{"type":"Point","coordinates":[116.331605,39.763489]},"properties":{"pname":"地铁4号线大兴线","pshort":"4号线大兴线","color":"008187","ls":"110100023076","name":"高米店南","en":"gao mi dian nan"}},{"type":"Feature","geometry":{"type":"Point","coordinates":[116.330787,39.773547]},"properties":{"pname":"地铁4号线大兴线","pshort":"4号线大兴线","color":"008187","ls":"110100023076","name":"高米店北","en":"gao mi dian bei"}},{"type":"Feature","geometry":{"type":"Point","coordinates":[116.328689,39.7898]},"properties":{"pname":"地铁4号线大兴线","pshort":"4号线大兴线","color":"008187","ls":"110100023076","name":"西红门","en":"xi hong men"}},{"type":"Feature","geometry":{"type":"Point","coordinates":[116.365549,39.812592]},"properties":{"pname":"地铁4号线大兴线","pshort":"4号线大兴线","color":"008187","ls":"110100023076","name":"新宫","en":"xin gong"}},{"type":"Feature","geometry":{"type":"Point","coordinates":[116.370796,39.836135]},"properties":{"pname":"地铁4号线大兴线","pshort":"4号线大兴线","color":"008187","ls":"110100023076","name":"公益西桥","en":"gong yi xi qiao"}},{"type":"Feature","geometry":{"type":"Point","coordinates":[116.371154,39.84585]},"properties":{"pname":"地铁4号线大兴线","pshort":"4号线大兴线","color":"008187","ls":"110100023076","name":"角门西","en":"jiao men xi"}},{"type":"Feature","geometry":{"type":"Point","coordinates":[116.371361,39.853109]},"properties":{"pname":"地铁4号线大兴线","pshort":"4号线大兴线","color":"008187","ls":"110100023076","name":"马家堡","en":"ma jia bao"}},{"type":"Feature","geometry":{"type":"Point","coordinates":[116.378963,39.865029]},"properties":{"pname":"地铁4号线大兴线","pshort":"4号线大兴线","color":"008187","ls":"110100023076","name":"北京南站","en":"bei jing nan zhan"}},{"type":"Feature","geometry":{"type":"Point","coordinates":[116.374383,39.87847]},"properties":{"pname":"地铁4号线大兴线","pshort":"4号线大兴线","color":"008187","ls":"110100023076","name":"陶然亭","en":"tao ran ting"}},{"type":"Feature","geometry":{"type":"Point","coordinates":[116.374425,39.889296]},"properties":{"pname":"地铁4号线大兴线","pshort":"4号线大兴线","color":"008187","ls":"110100023076","name":"菜市口","en":"cai shi kou"}},{"type":"Feature","geometry":{"type":"Point","coordinates":[116.373746,39.915912]},"properties":{"pname":"地铁4号线大兴线","pshort":"4号线大兴线","color":"008187","ls":"110100023076","name":"灵境胡同","en":"ling jing hu tong"}},{"type":"Feature","geometry":{"type":"Point","coordinates":[116.373332,39.924206]},"properties":{"pname":"地铁4号线大兴线","pshort":"4号线大兴线","color":"008187","ls":"110100023076","name":"西四","en":"xi si"}},{"type":"Feature","geometry":{"type":"Point","coordinates":[116.372883,39.933949]},"properties":{"pname":"地铁4号线大兴线","pshort":"4号线大兴线","color":"008187","ls":"110100023076","name":"平安里","en":"ping an li"}},{"type":"Feature","geometry":{"type":"Point","coordinates":[116.367742,39.940667]},"properties":{"pname":"地铁4号线大兴线","pshort":"4号线大兴线","color":"008187","ls":"110100023076","name":"新街口","en":"xin jie kou"}},{"type":"Feature","geometry":{"type":"Point","coordinates":[116.339031,39.93825]},"properties":{"pname":"地铁4号线大兴线","pshort":"4号线大兴线","color":"008187","ls":"110100023076","name":"动物园","en":"dong wu yuan"}},{"type":"Feature","geometry":{"type":"Point","coordinates":[116.32519,39.943114]},"properties":{"pname":"地铁4号线大兴线","pshort":"4号线大兴线","color":"008187","ls":"110100023076","name":"国家图书馆","en":"guo jia tu shu guan"}},{"type":"Feature","geometry":{"type":"Point","coordinates":[116.32322,39.957904]},"properties":{"pname":"地铁4号线大兴线","pshort":"4号线大兴线","color":"008187","ls":"110100023076","name":"魏公村","en":"wei gong cun"}},{"type":"Feature","geometry":{"type":"Point","coordinates":[116.321367,39.966956]},"properties":{"pname":"地铁4号线大兴线","pshort":"4号线大兴线","color":"008187","ls":"110100023076","name":"人民大学","en":"ren min da xue"}},{"type":"Feature","geometry":{"type":"Point","coordinates":[116.317564,39.975996]},"properties":{"pname":"地铁4号线大兴线","pshort":"4号线大兴线","color":"008187","ls":"110100023076","name":"海淀黄庄","en":"hai dian huang zhuang"}},{"type":"Feature","geometry":{"type":"Point","coordinates":[116.316467,39.983991]},"properties":{"pname":"地铁4号线大兴线","pshort":"4号线大兴线","color":"008187","ls":"110100023076","name":"中关村","en":"zhong guan cun"}},{"type":"Feature","geometry":{"type":"Point","coordinates":[116.315842,39.992212]},"properties":{"pname":"地铁4号线大兴线","pshort":"4号线大兴线","color":"008187","ls":"110100023076","name":"北京大学东门","en":"bei jing da xue dong men"}},{"type":"Feature","geometry":{"type":"Point","coordinates":[116.310186,39.999662]},"properties":{"pname":"地铁4号线大兴线","pshort":"4号线大兴线","color":"008187","ls":"110100023076","name":"圆明园","en":"yuan ming yuan"}},{"type":"Feature","geometry":{"type":"Point","coordinates":[116.290908,39.998258]},"properties":{"pname":"地铁4号线大兴线","pshort":"4号线大兴线","color":"008187","ls":"110100023076","name":"西苑","en":"xi yuan"}},{"type":"Feature","geometry":{"type":"Point","coordinates":[116.277647,40.002373]},"properties":{"pname":"地铁4号线大兴线","pshort":"4号线大兴线","color":"008187","ls":"110100023076","name":"北宫门","en":"bei gong men"}},{"type":"Feature","geometry":{"type":"Point","coordinates":[116.269956,40.012195]},"properties":{"pname":"地铁4号线大兴线","pshort":"4号线大兴线","color":"008187","ls":"110100023076","name":"安河桥北","en":"an he qiao bei"}},{"type":"Feature","geometry":{"type":"Point","coordinates":[116.428368,39.845849]},"properties":{"pname":"地铁5号线","pshort":"5号线","color":"A61D7F","ls":"110100023100","name":"宋家庄","en":"song jia zhuang"}},{"type":"Feature","geometry":{"type":"Point","coordinates":[116.422119,39.857521]},"properties":{"pname":"地铁5号线","pshort":"5号线","color":"A61D7F","ls":"110100023100","name":"刘家窑","en":"liu jia yao"}},{"type":"Feature","geometry":{"type":"Point","coordinates":[116.42372,39.865621]},"properties":{"pname":"地铁5号线","pshort":"5号线","color":"A61D7F","ls":"110100023100","name":"蒲黄榆","en":"pu huang yu"}},{"type":"Feature","geometry":{"type":"Point","coordinates":[116.420833,39.882558]},"properties":{"pname":"地铁5号线","pshort":"5号线","color":"A61D7F","ls":"110100023100","name":"天坛东门","en":"tian tan dong men"}},{"type":"Feature","geometry":{"type":"Point","coordinates":[116.41994,39.893172]},"properties":{"pname":"地铁5号线","pshort":"5号线","color":"A61D7F","ls":"110100023100","name":"磁器口","en":"ci qi kou"}},{"type":"Feature","geometry":{"type":"Point","coordinates":[116.417783,39.917113]},"properties":{"pname":"地铁5号线","pshort":"5号线","color":"A61D7F","ls":"110100023100","name":"灯市口","en":"deng shi kou"}},{"type":"Feature","geometry":{"type":"Point","coordinates":[116.417493,39.92437]},"properties":{"pname":"地铁5号线","pshort":"5号线","color":"A61D7F","ls":"110100023100","name":"东四","en":"dong si"}},{"type":"Feature","geometry":{"type":"Point","coordinates":[116.417156,39.933592]},"properties":{"pname":"地铁5号线","pshort":"5号线","color":"A61D7F","ls":"110100023100","name":"张自忠路","en":"zhang zi zhong lu"}},{"type":"Feature","geometry":{"type":"Point","coordinates":[116.416884,39.940782]},"properties":{"pname":"地铁5号线","pshort":"5号线","color":"A61D7F","ls":"110100023100","name":"北新桥","en":"bei xin qiao"}},{"type":"Feature","geometry":{"type":"Point","coordinates":[116.418504,39.958734]},"properties":{"pname":"地铁5号线","pshort":"5号线","color":"A61D7F","ls":"110100023100","name":"和平里北街","en":"he ping li bei jie"}},{"type":"Feature","geometry":{"type":"Point","coordinates":[116.417975,39.968386]},"properties":{"pname":"地铁5号线","pshort":"5号线","color":"A61D7F","ls":"110100023100","name":"和平西桥","en":"he ping xi qiao"}},{"type":"Feature","geometry":{"type":"Point","coordinates":[116.417537,39.977121]},"properties":{"pname":"地铁5号线","pshort":"5号线","color":"A61D7F","ls":"110100023100","name":"惠新西街南口","en":"hui xin xi jie nan kou"}},{"type":"Feature","geometry":{"type":"Point","coordinates":[116.417028,39.987836]},"properties":{"pname":"地铁5号线","pshort":"5号线","color":"A61D7F","ls":"110100023100","name":"惠新西街北口","en":"hui xin xi jie bei kou"}},{"type":"Feature","geometry":{"type":"Point","coordinates":[116.417377,40.003841]},"properties":{"pname":"地铁5号线","pshort":"5号线","color":"A61D7F","ls":"110100023100","name":"大屯路东","en":"da tun lu dong"}},{"type":"Feature","geometry":{"type":"Point","coordinates":[116.418089,40.030436]},"properties":{"pname":"地铁5号线","pshort":"5号线","color":"A61D7F","ls":"110100023100","name":"北苑路北","en":"bei yuan lu bei"}},{"type":"Feature","geometry":{"type":"Point","coordinates":[116.414496,40.041956]},"properties":{"pname":"地铁5号线","pshort":"5号线","color":"A61D7F","ls":"110100023100","name":"立水桥南","en":"li shui qiao nan"}},{"type":"Feature","geometry":{"type":"Point","coordinates":[116.41235,40.053032]},"properties":{"pname":"地铁5号线","pshort":"5号线","color":"A61D7F","ls":"110100023100","name":"立水桥","en":"li shui qiao"}},{"type":"Feature","geometry":{"type":"Point","coordinates":[116.412661,40.066458]},"properties":{"pname":"地铁5号线","pshort":"5号线","color":"A61D7F","ls":"110100023100","name":"天通苑南","en":"tian tong yuan nan"}},{"type":"Feature","geometry":{"type":"Point","coordinates":[116.412759,40.075222]},"properties":{"pname":"地铁5号线","pshort":"5号线","color":"A61D7F","ls":"110100023100","name":"天通苑","en":"tian tong yuan"}},{"type":"Feature","geometry":{"type":"Point","coordinates":[116.412888,40.083668]},"properties":{"pname":"地铁5号线","pshort":"5号线","color":"A61D7F","ls":"110100023100","name":"天通苑北","en":"tian tong yuan bei"}},{"type":"Feature","geometry":{"type":"Point","coordinates":[116.747434,39.902652]},"properties":{"pname":"地铁6号线","pshort":"6号线","color":"D0970A","ls":"110100023339","name":"潞城","en":"lu cheng"}},{"type":"Feature","geometry":{"type":"Point","coordinates":[116.73385,39.903147]},"properties":{"pname":"地铁6号线","pshort":"6号线","color":"D0970A","ls":"110100023339","name":"东夏园","en":"dong xia yuan"}},{"type":"Feature","geometry":{"type":"Point","coordinates":[116.717826,39.903195]},"properties":{"pname":"地铁6号线","pshort":"6号线","color":"D0970A","ls":"110100023339","name":"郝家府","en":"hao jia fu"}},{"type":"Feature","geometry":{"type":"Point","coordinates":[116.707056,39.903268]},"properties":{"pname":"地铁6号线","pshort":"6号线","color":"D0970A","ls":"110100023339","name":"北运河东","en":"bei yun he dong"}},{"type":"Feature","geometry":{"type":"Point","coordinates":[116.688358,39.903024]},"properties":{"pname":"地铁6号线","pshort":"6号线","color":"D0970A","ls":"110100023339","name":"北运河西","en":"bei yun he xi"}},{"type":"Feature","geometry":{"type":"Point","coordinates":[116.661131,39.917962]},"properties":{"pname":"地铁6号线","pshort":"6号线","color":"D0970A","ls":"110100023339","name":"通州北关","en":"tong zhou bei guan"}},{"type":"Feature","geometry":{"type":"Point","coordinates":[116.639316,39.926801]},"properties":{"pname":"地铁6号线","pshort":"6号线","color":"D0970A","ls":"110100023339","name":"物资学院路","en":"wu zi xue yuan lu"}},{"type":"Feature","geometry":{"type":"Point","coordinates":[116.615574,39.924477]},"properties":{"pname":"地铁6号线","pshort":"6号线","color":"D0970A","ls":"110100023339","name":"草房","en":"cao fang"}},{"type":"Feature","geometry":{"type":"Point","coordinates":[116.599722,39.925696]},"properties":{"pname":"地铁6号线","pshort":"6号线","color":"D0970A","ls":"110100023339","name":"常营","en":"chang ying"}},{"type":"Feature","geometry":{"type":"Point","coordinates":[116.578266,39.924201]},"properties":{"pname":"地铁6号线","pshort":"6号线","color":"D0970A","ls":"110100023339","name":"黄渠","en":"huang qu"}},{"type":"Feature","geometry":{"type":"Point","coordinates":[116.563961,39.924021]},"properties":{"pname":"地铁6号线","pshort":"6号线","color":"D0970A","ls":"110100023339","name":"褡裢坡","en":"da lian po"}},{"type":"Feature","geometry":{"type":"Point","coordinates":[116.517429,39.923168]},"properties":{"pname":"地铁6号线","pshort":"6号线","color":"D0970A","ls":"110100023339","name":"青年路","en":"qing nian lu"}},{"type":"Feature","geometry":{"type":"Point","coordinates":[116.502045,39.923076]},"properties":{"pname":"地铁6号线","pshort":"6号线","color":"D0970A","ls":"110100023339","name":"十里堡","en":"shi li bao"}},{"type":"Feature","geometry":{"type":"Point","coordinates":[116.478115,39.923556]},"properties":{"pname":"地铁6号线","pshort":"6号线","color":"D0970A","ls":"110100023339","name":"金台路","en":"jin tai lu"}},{"type":"Feature","geometry":{"type":"Point","coordinates":[116.461618,39.923337]},"properties":{"pname":"地铁6号线","pshort":"6号线","color":"D0970A","ls":"110100023339","name":"呼家楼","en":"hu jia lou"}},{"type":"Feature","geometry":{"type":"Point","coordinates":[116.451657,39.923054]},"properties":{"pname":"地铁6号线","pshort":"6号线","color":"D0970A","ls":"110100023339","name":"东大桥","en":"dong da qiao"}},{"type":"Feature","geometry":{"type":"Point","coordinates":[116.404192,39.933848]},"properties":{"pname":"地铁6号线","pshort":"6号线","color":"D0970A","ls":"110100023339","name":"南锣鼓巷","en":"nan luo gu xiang"}},{"type":"Feature","geometry":{"type":"Point","coordinates":[116.386829,39.933247]},"properties":{"pname":"地铁6号线","pshort":"6号线","color":"D0970A","ls":"110100023339","name":"北海北","en":"bei hai bei"}},{"type":"Feature","geometry":{"type":"Point","coordinates":[116.344082,39.932466]},"properties":{"pname":"地铁6号线","pshort":"6号线","color":"D0970A","ls":"110100023339","name":"车公庄西","en":"che gong zhuang xi"}},{"type":"Feature","geometry":{"type":"Point","coordinates":[116.32568,39.933022]},"properties":{"pname":"地铁6号线","pshort":"6号线","color":"D0970A","ls":"110100023339","name":"白石桥南","en":"bai shi qiao nan"}},{"type":"Feature","geometry":{"type":"Point","coordinates":[116.310683,39.93234]},"properties":{"pname":"地铁6号线","pshort":"6号线","color":"D0970A","ls":"110100023339","name":"花园桥","en":"hua yuan qiao"}},{"type":"Feature","geometry":{"type":"Point","coordinates":[116.295467,39.933268]},"properties":{"pname":"地铁6号线","pshort":"6号线","color":"D0970A","ls":"110100023339","name":"慈寿寺","en":"ci shou si"}},{"type":"Feature","geometry":{"type":"Point","coordinates":[116.276531,39.932584]},"properties":{"pname":"地铁6号线","pshort":"6号线","color":"D0970A","ls":"110100023339","name":"海淀五路居","en":"hai dian wu lu ju"}},{"type":"Feature","geometry":{"type":"Point","coordinates":[116.252914,39.929503]},"properties":{"pname":"地铁6号线","pshort":"6号线","color":"D0970A","ls":"110100023339","name":"田村","en":"tian cun"}},{"type":"Feature","geometry":{"type":"Point","coordinates":[116.227292,39.932422]},"properties":{"pname":"地铁6号线","pshort":"6号线","color":"D0970A","ls":"110100023339","name":"廖公庄","en":"liao gong zhuang"}},{"type":"Feature","geometry":{"type":"Point","coordinates":[116.206932,39.933605]},"properties":{"pname":"地铁6号线","pshort":"6号线","color":"D0970A","ls":"110100023339","name":"西黄村","en":"xi huang cun"}},{"type":"Feature","geometry":{"type":"Point","coordinates":[116.187004,39.92785]},"properties":{"pname":"地铁6号线","pshort":"6号线","color":"D0970A","ls":"110100023339","name":"杨庄","en":"yang zhuang"}},{"type":"Feature","geometry":{"type":"Point","coordinates":[116.695495,39.856722]},"properties":{"pname":"地铁7号线","pshort":"7号线","color":"F9BE58","ls":"110100023054","name":"花庄","en":"HuaZhuang"}},{"type":"Feature","geometry":{"type":"Point","coordinates":[116.68434,39.863154]},"properties":{"pname":"地铁7号线","pshort":"7号线","color":"F9BE58","ls":"110100023054","name":"高楼金","en":"GaoLouJin"}},{"type":"Feature","geometry":{"type":"Point","coordinates":[116.670792,39.863515]},"properties":{"pname":"地铁7号线","pshort":"7号线","color":"F9BE58","ls":"110100023054","name":"群芳","en":"QunFang"}},{"type":"Feature","geometry":{"type":"Point","coordinates":[116.657379,39.863491]},"properties":{"pname":"地铁7号线","pshort":"7号线","color":"F9BE58","ls":"110100023054","name":"万盛东","en":"WanShengDong"}},{"type":"Feature","geometry":{"type":"Point","coordinates":[116.63216,39.863328]},"properties":{"pname":"地铁7号线","pshort":"7号线","color":"F9BE58","ls":"110100023054","name":"万盛西","en":"WanShengXi"}},{"type":"Feature","geometry":{"type":"Point","coordinates":[116.599119,39.858725]},"properties":{"pname":"地铁7号线","pshort":"7号线","color":"F9BE58","ls":"110100023054","name":"黑庄户","en":"HeiZhuangHu"}},{"type":"Feature","geometry":{"type":"Point","coordinates":[116.569826,39.856496]},"properties":{"pname":"地铁7号线","pshort":"7号线","color":"F9BE58","ls":"110100023054","name":"郎辛庄","en":"Lang XinZhuang"}},{"type":"Feature","geometry":{"type":"Point","coordinates":[116.553759,39.848979]},"properties":{"pname":"地铁7号线","pshort":"7号线","color":"F9BE58","ls":"110100023054","name":"黄厂","en":"HuangChang"}},{"type":"Feature","geometry":{"type":"Point","coordinates":[116.537247,39.855488]},"properties":{"pname":"地铁7号线","pshort":"7号线","color":"F9BE58","ls":"110100023054","name":"焦化厂","en":"jiao hua chang"}},{"type":"Feature","geometry":{"type":"Point","coordinates":[116.526836,39.859691]},"properties":{"pname":"地铁7号线","pshort":"7号线","color":"F9BE58","ls":"110100023054","name":"双合","en":"shuang he"}},{"type":"Feature","geometry":{"type":"Point","coordinates":[116.511821,39.860728]},"properties":{"pname":"地铁7号线","pshort":"7号线","color":"F9BE58","ls":"110100023054","name":"垡头","en":"fa tou"}},{"type":"Feature","geometry":{"type":"Point","coordinates":[116.500067,39.866505]},"properties":{"pname":"地铁7号线","pshort":"7号线","color":"F9BE58","ls":"110100023054","name":"欢乐谷景区","en":"huan le gu jing qu"}},{"type":"Feature","geometry":{"type":"Point","coordinates":[116.501084,39.874578]},"properties":{"pname":"地铁7号线","pshort":"7号线","color":"F9BE58","ls":"110100023054","name":"南楼梓庄","en":"nan lou zi zhuang"}},{"type":"Feature","geometry":{"type":"Point","coordinates":[116.503439,39.887369]},"properties":{"pname":"地铁7号线","pshort":"7号线","color":"F9BE58","ls":"110100023054","name":"化工","en":"hua gong"}},{"type":"Feature","geometry":{"type":"Point","coordinates":[116.497768,39.89253]},"properties":{"pname":"地铁7号线","pshort":"7号线","color":"F9BE58","ls":"110100023054","name":"百子湾","en":"bai zi wan"}},{"type":"Feature","geometry":{"type":"Point","coordinates":[116.487935,39.893183]},"properties":{"pname":"地铁7号线","pshort":"7号线","color":"F9BE58","ls":"110100023054","name":"大郊亭","en":"da jiao ting"}},{"type":"Feature","geometry":{"type":"Point","coordinates":[116.478695,39.893222]},"properties":{"pname":"地铁7号线","pshort":"7号线","color":"F9BE58","ls":"110100023054","name":"九龙山","en":"jiu long shan"}},{"type":"Feature","geometry":{"type":"Point","coordinates":[116.461834,39.893512]},"properties":{"pname":"地铁7号线","pshort":"7号线","color":"F9BE58","ls":"110100023054","name":"双井","en":"ShuangJing"}},{"type":"Feature","geometry":{"type":"Point","coordinates":[116.448998,39.893648]},"properties":{"pname":"地铁7号线","pshort":"7号线","color":"F9BE58","ls":"110100023054","name":"广渠门外","en":"guang qu men wai"}},{"type":"Feature","geometry":{"type":"Point","coordinates":[116.433877,39.893673]},"properties":{"pname":"地铁7号线","pshort":"7号线","color":"F9BE58","ls":"110100023054","name":"广渠门内","en":"guang qu men nei"}},{"type":"Feature","geometry":{"type":"Point","coordinates":[116.408464,39.892725]},"properties":{"pname":"地铁7号线","pshort":"7号线","color":"F9BE58","ls":"110100023054","name":"桥湾","en":"qiao wan"}},{"type":"Feature","geometry":{"type":"Point","coordinates":[116.398104,39.891267]},"properties":{"pname":"地铁7号线","pshort":"7号线","color":"F9BE58","ls":"110100023054","name":"珠市口","en":"zhu shi kou"}},{"type":"Feature","geometry":{"type":"Point","coordinates":[116.384596,39.889486]},"properties":{"pname":"地铁7号线","pshort":"7号线","color":"F9BE58","ls":"110100023054","name":"虎坊桥","en":"hu fang qiao"}},{"type":"Feature","geometry":{"type":"Point","coordinates":[116.358239,39.889418]},"properties":{"pname":"地铁7号线","pshort":"7号线","color":"F9BE58","ls":"110100023054","name":"广安门内","en":"guang an men nei"}},{"type":"Feature","geometry":{"type":"Point","coordinates":[116.336455,39.889884]},"properties":{"pname":"地铁7号线","pshort":"7号线","color":"F9BE58","ls":"110100023054","name":"达官营","en":"da guan ying"}},{"type":"Feature","geometry":{"type":"Point","coordinates":[116.327753,39.889954]},"properties":{"pname":"地铁7号线","pshort":"7号线","color":"F9BE58","ls":"110100023054","name":"湾子","en":"wan zi"}},{"type":"Feature","geometry":{"type":"Point","coordinates":[116.321218,39.894706]},"properties":{"pname":"地铁7号线","pshort":"7号线","color":"F9BE58","ls":"110100023054","name":"北京西站","en":"bei jing xi zhan"}},{"type":"Feature","geometry":{"type":"Point","coordinates":[116.410803,39.923705]},"properties":{"pname":"地铁8号线","pshort":"8号线","color":"018237","ls":"110100023114","name":"中国美术馆","en":"zhong guo mei shu guan"}},{"type":"Feature","geometry":{"type":"Point","coordinates":[116.396219,39.937583]},"properties":{"pname":"地铁8号线","pshort":"8号线","color":"018237","ls":"110100023114","name":"什刹海","en":"shi cha hai"}},{"type":"Feature","geometry":{"type":"Point","coordinates":[116.395145,39.957227]},"properties":{"pname":"地铁8号线","pshort":"8号线","color":"018237","ls":"110100023114","name":"安德里北街","en":"an de li bei jie"}},{"type":"Feature","geometry":{"type":"Point","coordinates":[116.394655,39.968507]},"properties":{"pname":"地铁8号线","pshort":"8号线","color":"018237","ls":"110100023114","name":"安华桥","en":"an hua qiao"}},{"type":"Feature","geometry":{"type":"Point","coordinates":[116.394193,39.976953]},"properties":{"pname":"地铁8号线","pshort":"8号线","color":"018237","ls":"110100023114","name":"北土城","en":"bei tu cheng"}},{"type":"Feature","geometry":{"type":"Point","coordinates":[116.393759,39.985837]},"properties":{"pname":"地铁8号线","pshort":"8号线","color":"018237","ls":"110100023114","name":"奥体中心","en":"ao ti zhong xin"}},{"type":"Feature","geometry":{"type":"Point","coordinates":[116.391758,40.002207]},"properties":{"pname":"地铁8号线","pshort":"8号线","color":"018237","ls":"110100023114","name":"奥林匹克公园","en":"ao lin pi ke gong yuan"}},{"type":"Feature","geometry":{"type":"Point","coordinates":[116.3926,40.010122]},"properties":{"pname":"地铁8号线","pshort":"8号线","color":"018237","ls":"110100023114","name":"森林公园南门","en":"sen lin gong yuan nan men"}},{"type":"Feature","geometry":{"type":"Point","coordinates":[116.372998,40.021906]},"properties":{"pname":"地铁8号线","pshort":"8号线","color":"018237","ls":"110100023114","name":"林萃桥","en":"lin cui qiao"}},{"type":"Feature","geometry":{"type":"Point","coordinates":[116.35458,40.037728]},"properties":{"pname":"地铁8号线","pshort":"8号线","color":"018237","ls":"110100023114","name":"永泰庄","en":"yong tai zhuang"}},{"type":"Feature","geometry":{"type":"Point","coordinates":[116.351644,40.046873]},"properties":{"pname":"地铁8号线","pshort":"8号线","color":"018237","ls":"110100023114","name":"西小口","en":"xi xiao kou"}},{"type":"Feature","geometry":{"type":"Point","coordinates":[116.347328,40.060039]},"properties":{"pname":"地铁8号线","pshort":"8号线","color":"018237","ls":"110100023114","name":"育新","en":"yu xin"}},{"type":"Feature","geometry":{"type":"Point","coordinates":[116.360286,40.071857]},"properties":{"pname":"地铁8号线","pshort":"8号线","color":"018237","ls":"110100023114","name":"霍营","en":"huo ying"}},{"type":"Feature","geometry":{"type":"Point","coordinates":[116.363025,40.081175]},"properties":{"pname":"地铁8号线","pshort":"8号线","color":"018237","ls":"110100023114","name":"回龙观东大街","en":"hui long guan dong da jie"}},{"type":"Feature","geometry":{"type":"Point","coordinates":[116.350425,40.090607]},"properties":{"pname":"地铁8号线","pshort":"8号线","color":"018237","ls":"110100023114","name":"平西府","en":"ping xi fu"}},{"type":"Feature","geometry":{"type":"Point","coordinates":[116.326992,40.087863]},"properties":{"pname":"地铁8号线","pshort":"8号线","color":"018237","ls":"110100023114","name":"育知路","en":"yu zhi lu"}},{"type":"Feature","geometry":{"type":"Point","coordinates":[116.313698,40.104297]},"properties":{"pname":"地铁8号线","pshort":"8号线","color":"018237","ls":"110100023114","name":"朱辛庄","en":"zhu xin zhuang"}},{"type":"Feature","geometry":{"type":"Point","coordinates":[116.398712,39.88192]},"properties":{"pname":"地铁8号线南段","pshort":"8号线南段","color":"018237","ls":"900000040279","name":"天桥","en":"tian qiao"}},{"type":"Feature","geometry":{"type":"Point","coordinates":[116.399369,39.867435]},"properties":{"pname":"地铁8号线南段","pshort":"8号线南段","color":"018237","ls":"900000040279","name":"永定门外","en":"yong ding men wai"}},{"type":"Feature","geometry":{"type":"Point","coordinates":[116.399839,39.859262]},"properties":{"pname":"地铁8号线南段","pshort":"8号线南段","color":"018237","ls":"900000040279","name":"木樨园","en":"mu xi yuan"}},{"type":"Feature","geometry":{"type":"Point","coordinates":[116.400301,39.851805]},"properties":{"pname":"地铁8号线南段","pshort":"8号线南段","color":"018237","ls":"900000040279","name":"海户屯","en":"hai hu tun"}},{"type":"Feature","geometry":{"type":"Point","coordinates":[116.401045,39.836715]},"properties":{"pname":"地铁8号线南段","pshort":"8号线南段","color":"018237","ls":"900000040279","name":"大红门南","en":"da hong men nan"}},{"type":"Feature","geometry":{"type":"Point","coordinates":[116.402073,39.814838]},"properties":{"pname":"地铁8号线南段","pshort":"8号线南段","color":"018237","ls":"900000040279","name":"和义","en":"he yi"}},{"type":"Feature","geometry":{"type":"Point","coordinates":[116.409427,39.805074]},"properties":{"pname":"地铁8号线南段","pshort":"8号线南段","color":"018237","ls":"900000040279","name":"东高地","en":"dong gao di"}},{"type":"Feature","geometry":{"type":"Point","coordinates":[116.418627,39.799287]},"properties":{"pname":"地铁8号线南段","pshort":"8号线南段","color":"018237","ls":"900000040279","name":"火箭万源","en":"huo jian wan yuan"}},{"type":"Feature","geometry":{"type":"Point","coordinates":[116.423903,39.785046]},"properties":{"pname":"地铁8号线南段","pshort":"8号线南段","color":"018237","ls":"900000040279","name":"五福堂","en":"wu fu tang"}},{"type":"Feature","geometry":{"type":"Point","coordinates":[116.441617,39.772709]},"properties":{"pname":"地铁8号线南段","pshort":"8号线南段","color":"018237","ls":"900000040279","name":"德茂","en":"de mao"}},{"type":"Feature","geometry":{"type":"Point","coordinates":[116.448958,39.760694]},"properties":{"pname":"地铁8号线南段","pshort":"8号线南段","color":"018237","ls":"900000040279","name":"瀛海","en":"ying hai"}},{"type":"Feature","geometry":{"type":"Point","coordinates":[116.301889,39.814322]},"properties":{"pname":"地铁9号线","pshort":"9号线","color":"86B81C","ls":"110100023116","name":"郭公庄","en":"guo gong zhuang"}},{"type":"Feature","geometry":{"type":"Point","coordinates":[116.297176,39.825233]},"properties":{"pname":"地铁9号线","pshort":"9号线","color":"86B81C","ls":"110100023116","name":"丰台科技园","en":"feng tai ke ji yuan"}},{"type":"Feature","geometry":{"type":"Point","coordinates":[116.297432,39.83248]},"properties":{"pname":"地铁9号线","pshort":"9号线","color":"86B81C","ls":"110100023116","name":"科怡路","en":"ke yi lu"}},{"type":"Feature","geometry":{"type":"Point","coordinates":[116.296748,39.840444]},"properties":{"pname":"地铁9号线","pshort":"9号线","color":"86B81C","ls":"110100023116","name":"丰台南路","en":"feng tai nan lu"}},{"type":"Feature","geometry":{"type":"Point","coordinates":[116.293857,39.855111]},"properties":{"pname":"地铁9号线","pshort":"9号线","color":"86B81C","ls":"110100023116","name":"丰台东大街","en":"feng tai dong da jie"}},{"type":"Feature","geometry":{"type":"Point","coordinates":[116.294292,39.866773]},"properties":{"pname":"地铁9号线","pshort":"9号线","color":"86B81C","ls":"110100023116","name":"七里庄","en":"qi li zhuang"}},{"type":"Feature","geometry":{"type":"Point","coordinates":[116.302808,39.880239]},"properties":{"pname":"地铁9号线","pshort":"9号线","color":"86B81C","ls":"110100023116","name":"六里桥","en":"liu li qiao"}},{"type":"Feature","geometry":{"type":"Point","coordinates":[116.315142,39.886886]},"properties":{"pname":"地铁9号线","pshort":"9号线","color":"86B81C","ls":"110100023116","name":"六里桥东","en":"liu li qiao dong"}},{"type":"Feature","geometry":{"type":"Point","coordinates":[116.325762,39.923818]},"properties":{"pname":"地铁9号线","pshort":"9号线","color":"86B81C","ls":"110100023116","name":"白堆子","en":"bai dui zi"}},{"type":"Feature","geometry":{"type":"Point","coordinates":[116.293727,39.974179]},"properties":{"pname":"地铁10号线","pshort":"10号线","color":"019AC3","ls":"110100023282","name":"巴沟","en":"ba gou"}},{"type":"Feature","geometry":{"type":"Point","coordinates":[116.306332,39.975642]},"properties":{"pname":"地铁10号线","pshort":"10号线","color":"019AC3","ls":"110100023282","name":"苏州街","en":"su zhou jie"}},{"type":"Feature","geometry":{"type":"Point","coordinates":[116.328709,39.976334]},"properties":{"pname":"地铁10号线","pshort":"10号线","color":"019AC3","ls":"110100023282","name":"知春里","en":"zhi chun li"}},{"type":"Feature","geometry":{"type":"Point","coordinates":[116.33996,39.976476]},"properties":{"pname":"地铁10号线","pshort":"10号线","color":"019AC3","ls":"110100023282","name":"知春路","en":"zhi chun lu"}},{"type":"Feature","geometry":{"type":"Point","coordinates":[116.354098,39.976549]},"properties":{"pname":"地铁10号线","pshort":"10号线","color":"019AC3","ls":"110100023282","name":"西土城","en":"xi tu cheng"}},{"type":"Feature","geometry":{"type":"Point","coordinates":[116.369844,39.976603]},"properties":{"pname":"地铁10号线","pshort":"10号线","color":"019AC3","ls":"110100023282","name":"牡丹园","en":"mu dan yuan"}},{"type":"Feature","geometry":{"type":"Point","coordinates":[116.381353,39.976723]},"properties":{"pname":"地铁10号线","pshort":"10号线","color":"019AC3","ls":"110100023282","name":"健德门","en":"jian de men"}},{"type":"Feature","geometry":{"type":"Point","coordinates":[116.405954,39.977005]},"properties":{"pname":"地铁10号线","pshort":"10号线","color":"019AC3","ls":"110100023282","name":"安贞门","en":"an zhen men"}},{"type":"Feature","geometry":{"type":"Point","coordinates":[116.435914,39.977636]},"properties":{"pname":"地铁10号线","pshort":"10号线","color":"019AC3","ls":"110100023282","name":"芍药居","en":"shao yao ju"}},{"type":"Feature","geometry":{"type":"Point","coordinates":[116.447469,39.972678]},"properties":{"pname":"地铁10号线","pshort":"10号线","color":"019AC3","ls":"110100023282","name":"太阳宫","en":"tai yang gong"}},{"type":"Feature","geometry":{"type":"Point","coordinates":[116.456997,39.961508]},"properties":{"pname":"地铁10号线","pshort":"10号线","color":"019AC3","ls":"110100023282","name":"三元桥","en":"san yuan qiao"}},{"type":"Feature","geometry":{"type":"Point","coordinates":[116.461794,39.949415]},"properties":{"pname":"地铁10号线","pshort":"10号线","color":"019AC3","ls":"110100023282","name":"亮马桥","en":"liang ma qiao"}},{"type":"Feature","geometry":{"type":"Point","coordinates":[116.461724,39.941344]},"properties":{"pname":"地铁10号线","pshort":"10号线","color":"019AC3","ls":"110100023282","name":"农业展览馆","en":"nong ye zhan lan guan"}},{"type":"Feature","geometry":{"type":"Point","coordinates":[116.461806,39.933747]},"properties":{"pname":"地铁10号线","pshort":"10号线","color":"019AC3","ls":"110100023282","name":"团结湖","en":"tuan jie hu"}},{"type":"Feature","geometry":{"type":"Point","coordinates":[116.461743,39.916838]},"properties":{"pname":"地铁10号线","pshort":"10号线","color":"019AC3","ls":"110100023282","name":"金台夕照","en":"jin tai xi zhao"}},{"type":"Feature","geometry":{"type":"Point","coordinates":[116.461325,39.884387]},"properties":{"pname":"地铁10号线","pshort":"10号线","color":"019AC3","ls":"110100023282","name":"劲松","en":"jin song"}},{"type":"Feature","geometry":{"type":"Point","coordinates":[116.460926,39.875387]},"properties":{"pname":"地铁10号线","pshort":"10号线","color":"019AC3","ls":"110100023282","name":"潘家园","en":"pan jia yuan"}},{"type":"Feature","geometry":{"type":"Point","coordinates":[116.457983,39.866417]},"properties":{"pname":"地铁10号线","pshort":"10号线","color":"019AC3","ls":"110100023282","name":"十里河","en":"shi li he"}},{"type":"Feature","geometry":{"type":"Point","coordinates":[116.453976,39.852227]},"properties":{"pname":"地铁10号线","pshort":"10号线","color":"019AC3","ls":"110100023282","name":"分钟寺","en":"fen zhong si"}},{"type":"Feature","geometry":{"type":"Point","coordinates":[116.447531,39.845874]},"properties":{"pname":"地铁10号线","pshort":"10号线","color":"019AC3","ls":"110100023282","name":"成寿寺","en":"cheng shou si"}},{"type":"Feature","geometry":{"type":"Point","coordinates":[116.414103,39.845905]},"properties":{"pname":"地铁10号线","pshort":"10号线","color":"019AC3","ls":"110100023282","name":"石榴庄","en":"shi liu zhuang"}},{"type":"Feature","geometry":{"type":"Point","coordinates":[116.399154,39.845383]},"properties":{"pname":"地铁10号线","pshort":"10号线","color":"019AC3","ls":"110100023282","name":"大红门","en":"da hong men"}},{"type":"Feature","geometry":{"type":"Point","coordinates":[116.385649,39.845135]},"properties":{"pname":"地铁10号线","pshort":"10号线","color":"019AC3","ls":"110100023282","name":"角门东","en":"jiao men dong"}},{"type":"Feature","geometry":{"type":"Point","coordinates":[116.351387,39.845869]},"properties":{"pname":"地铁10号线","pshort":"10号线","color":"019AC3","ls":"110100023282","name":"草桥","en":"CaoQiao"}},{"type":"Feature","geometry":{"type":"Point","coordinates":[116.333381,39.844433]},"properties":{"pname":"地铁10号线","pshort":"10号线","color":"019AC3","ls":"110100023282","name":"纪家庙","en":"ji jia miao"}},{"type":"Feature","geometry":{"type":"Point","coordinates":[116.320202,39.844463]},"properties":{"pname":"地铁10号线","pshort":"10号线","color":"019AC3","ls":"110100023282","name":"首经贸","en":"shou jing mao"}},{"type":"Feature","geometry":{"type":"Point","coordinates":[116.30454,39.849639]},"properties":{"pname":"地铁10号线","pshort":"10号线","color":"019AC3","ls":"110100023282","name":"丰台站","en":"feng tai zhan"}},{"type":"Feature","geometry":{"type":"Point","coordinates":[116.304173,39.858609]},"properties":{"pname":"地铁10号线","pshort":"10号线","color":"019AC3","ls":"110100023282","name":"泥洼","en":"ni wa"}},{"type":"Feature","geometry":{"type":"Point","coordinates":[116.303819,39.86677]},"properties":{"pname":"地铁10号线","pshort":"10号线","color":"019AC3","ls":"110100023282","name":"西局","en":"xi ju"}},{"type":"Feature","geometry":{"type":"Point","coordinates":[116.310347,39.897867]},"properties":{"pname":"地铁10号线","pshort":"10号线","color":"019AC3","ls":"110100023282","name":"莲花桥","en":"lian hua qiao"}},{"type":"Feature","geometry":{"type":"Point","coordinates":[116.298064,39.923481]},"properties":{"pname":"地铁10号线","pshort":"10号线","color":"019AC3","ls":"110100023282","name":"西钓鱼台","en":"xi diao yu tai"}},{"type":"Feature","geometry":{"type":"Point","coordinates":[116.293818,39.947923]},"properties":{"pname":"地铁10号线","pshort":"10号线","color":"019AC3","ls":"110100023282","name":"车道沟","en":"che dao gou"}},{"type":"Feature","geometry":{"type":"Point","coordinates":[116.294255,39.958527]},"properties":{"pname":"地铁10号线","pshort":"10号线","color":"019AC3","ls":"110100023282","name":"长春桥","en":"chang chun qiao"}},{"type":"Feature","geometry":{"type":"Point","coordinates":[116.289058,39.965938]},"properties":{"pname":"地铁10号线","pshort":"10号线","color":"019AC3","ls":"110100023282","name":"火器营","en":"huo qi ying"}},{"type":"Feature","geometry":{"type":"Point","coordinates":[116.345139,39.966612]},"properties":{"pname":"地铁13号线","pshort":"13号线","color":"FCD600","ls":"110100033066","name":"大钟寺","en":"da zhong si"}},{"type":"Feature","geometry":{"type":"Point","coordinates":[116.337742,39.992894]},"properties":{"pname":"地铁13号线","pshort":"13号线","color":"FCD600","ls":"110100033066","name":"五道口","en":"wu dao kou"}},{"type":"Feature","geometry":{"type":"Point","coordinates":[116.320193,40.033007]},"properties":{"pname":"地铁13号线","pshort":"13号线","color":"FCD600","ls":"110100033066","name":"上地","en":"shang di"}},{"type":"Feature","geometry":{"type":"Point","coordinates":[116.314797,40.04109]},"properties":{"pname":"地铁13号线","pshort":"13号线","color":"FCD600","ls":"110100033066","name":"清河","en":"QingHe"}},{"type":"Feature","geometry":{"type":"Point","coordinates":[116.306295,40.053034]},"properties":{"pname":"地铁13号线","pshort":"13号线","color":"FCD600","ls":"110100033066","name":"西二旗","en":"xi er qi"}},{"type":"Feature","geometry":{"type":"Point","coordinates":[116.319429,40.070882]},"properties":{"pname":"地铁13号线","pshort":"13号线","color":"FCD600","ls":"110100033066","name":"龙泽","en":"long ze"}},{"type":"Feature","geometry":{"type":"Point","coordinates":[116.336116,40.0708]},"properties":{"pname":"地铁13号线","pshort":"13号线","color":"FCD600","ls":"110100033066","name":"回龙观","en":"hui long guan"}},{"type":"Feature","geometry":{"type":"Point","coordinates":[116.434518,40.042997]},"properties":{"pname":"地铁13号线","pshort":"13号线","color":"FCD600","ls":"110100033066","name":"北苑","en":"bei yuan"}},{"type":"Feature","geometry":{"type":"Point","coordinates":[116.449884,39.995724]},"properties":{"pname":"地铁13号线","pshort":"13号线","color":"FCD600","ls":"110100033066","name":"望京西","en":"wang jing xi"}},{"type":"Feature","geometry":{"type":"Point","coordinates":[116.431761,39.968337]},"properties":{"pname":"地铁13号线","pshort":"13号线","color":"FCD600","ls":"110100033066","name":"光熙门","en":"guang xi men"}},{"type":"Feature","geometry":{"type":"Point","coordinates":[116.432728,39.958157]},"properties":{"pname":"地铁13号线","pshort":"13号线","color":"FCD600","ls":"110100033066","name":"柳芳","en":"liu fang"}},{"type":"Feature","geometry":{"type":"Point","coordinates":[116.478195,40.02716]},"properties":{"pname":"地铁14号线东段","pshort":"14号线东段","color":"E4A8A3","ls":"900000028907","name":"善各庄","en":"shan ge zhuang"}},{"type":"Feature","geometry":{"type":"Point","coordinates":[116.466994,40.020588]},"properties":{"pname":"地铁14号线东段","pshort":"14号线东段","color":"E4A8A3","ls":"900000028907","name":"来广营","en":"lai guang ying"}},{"type":"Feature","geometry":{"type":"Point","coordinates":[116.467412,40.01067]},"properties":{"pname":"地铁14号线东段","pshort":"14号线东段","color":"E4A8A3","ls":"900000028907","name":"东湖渠","en":"dong hu qu"}},{"type":"Feature","geometry":{"type":"Point","coordinates":[116.469409,39.998521]},"properties":{"pname":"地铁14号线东段","pshort":"14号线东段","color":"E4A8A3","ls":"900000028907","name":"望京","en":"wang jing"}},{"type":"Feature","geometry":{"type":"Point","coordinates":[116.47174,39.991699]},"properties":{"pname":"地铁14号线东段","pshort":"14号线东段","color":"E4A8A3","ls":"900000028907","name":"阜通","en":"fu tong"}},{"type":"Feature","geometry":{"type":"Point","coordinates":[116.481634,39.984634]},"properties":{"pname":"地铁14号线东段","pshort":"14号线东段","color":"E4A8A3","ls":"900000028907","name":"望京南","en":"wang jing nan"}},{"type":"Feature","geometry":{"type":"Point","coordinates":[116.489496,39.971109]},"properties":{"pname":"地铁14号线东段","pshort":"14号线东段","color":"E4A8A3","ls":"900000028907","name":"将台","en":"jiang tai"}},{"type":"Feature","geometry":{"type":"Point","coordinates":[116.485919,39.958375]},"properties":{"pname":"地铁14号线东段","pshort":"14号线东段","color":"E4A8A3","ls":"900000028907","name":"东风北桥","en":"dong feng bei qiao"}},{"type":"Feature","geometry":{"type":"Point","coordinates":[116.474947,39.944132]},"properties":{"pname":"地铁14号线东段","pshort":"14号线东段","color":"E4A8A3","ls":"900000028907","name":"枣营","en":"zao ying"}},{"type":"Feature","geometry":{"type":"Point","coordinates":[116.478291,39.933492]},"properties":{"pname":"地铁14号线东段","pshort":"14号线东段","color":"E4A8A3","ls":"900000028907","name":"朝阳公园","en":"zhao yang gong yuan"}},{"type":"Feature","geometry":{"type":"Point","coordinates":[116.477307,39.885275]},"properties":{"pname":"地铁14号线东段","pshort":"14号线东段","color":"E4A8A3","ls":"900000028907","name":"平乐园","en":"ping le yuan"}},{"type":"Feature","geometry":{"type":"Point","coordinates":[116.477319,39.875445]},"properties":{"pname":"地铁14号线东段","pshort":"14号线东段","color":"E4A8A3","ls":"900000028907","name":"北工大西门","en":"bei gong da xi men"}},{"type":"Feature","geometry":{"type":"Point","coordinates":[116.440244,39.865868]},"properties":{"pname":"地铁14号线东段","pshort":"14号线东段","color":"E4A8A3","ls":"900000028907","name":"方庄","en":"fang zhuang"}},{"type":"Feature","geometry":{"type":"Point","coordinates":[116.411027,39.865255]},"properties":{"pname":"地铁14号线东段","pshort":"14号线东段","color":"E4A8A3","ls":"900000028907","name":"景泰","en":"jing tai"}},{"type":"Feature","geometry":{"type":"Point","coordinates":[116.276061,39.865226]},"properties":{"pname":"地铁14号线西段","pshort":"14号线西段","color":"E4A8A3","ls":"110100023068","name":"大井","en":"da jing"}},{"type":"Feature","geometry":{"type":"Point","coordinates":[116.253068,39.864841]},"properties":{"pname":"地铁14号线西段","pshort":"14号线西段","color":"E4A8A3","ls":"110100023068","name":"郭庄子","en":"guo zhuang zi"}},{"type":"Feature","geometry":{"type":"Point","coordinates":[116.24048,39.85947]},"properties":{"pname":"地铁14号线西段","pshort":"14号线西段","color":"E4A8A3","ls":"110100023068","name":"大瓦窑","en":"da wa yao"}},{"type":"Feature","geometry":{"type":"Point","coordinates":[116.201643,39.861328]},"properties":{"pname":"地铁14号线西段","pshort":"14号线西段","color":"E4A8A3","ls":"110100023068","name":"园博园","en":"yuan bo yuan"}},{"type":"Feature","geometry":{"type":"Point","coordinates":[116.187193,39.8581]},"properties":{"pname":"地铁14号线西段","pshort":"14号线西段","color":"E4A8A3","ls":"110100023068","name":"张郭庄","en":"zhang guo zhuang"}},{"type":"Feature","geometry":{"type":"Point","coordinates":[116.684732,40.132573]},"properties":{"pname":"地铁15号线","pshort":"15号线","color":"793E8C","ls":"110100023070","name":"俸伯","en":"feng bo"}},{"type":"Feature","geometry":{"type":"Point","coordinates":[116.657023,40.129994]},"properties":{"pname":"地铁15号线","pshort":"15号线","color":"793E8C","ls":"110100023070","name":"顺义","en":"shun yi"}},{"type":"Feature","geometry":{"type":"Point","coordinates":[116.641117,40.129802]},"properties":{"pname":"地铁15号线","pshort":"15号线","color":"793E8C","ls":"110100023070","name":"石门","en":"shi men"}},{"type":"Feature","geometry":{"type":"Point","coordinates":[116.609535,40.128478]},"properties":{"pname":"地铁15号线","pshort":"15号线","color":"793E8C","ls":"110100023070","name":"南法信","en":"nan fa xin"}},{"type":"Feature","geometry":{"type":"Point","coordinates":[116.564211,40.114127]},"properties":{"pname":"地铁15号线","pshort":"15号线","color":"793E8C","ls":"110100023070","name":"后沙峪","en":"hou sha yu"}},{"type":"Feature","geometry":{"type":"Point","coordinates":[116.557593,40.084436]},"properties":{"pname":"地铁15号线","pshort":"15号线","color":"793E8C","ls":"110100023070","name":"花梨坎","en":"hua li kan"}},{"type":"Feature","geometry":{"type":"Point","coordinates":[116.555127,40.07003]},"properties":{"pname":"地铁15号线","pshort":"15号线","color":"793E8C","ls":"110100023070","name":"国展","en":"guo zhan"}},{"type":"Feature","geometry":{"type":"Point","coordinates":[116.5347,40.045113]},"properties":{"pname":"地铁15号线","pshort":"15号线","color":"793E8C","ls":"110100023070","name":"孙河","en":"sun he"}},{"type":"Feature","geometry":{"type":"Point","coordinates":[116.50348,40.033721]},"properties":{"pname":"地铁15号线","pshort":"15号线","color":"793E8C","ls":"110100023070","name":"马泉营","en":"ma quan ying"}},{"type":"Feature","geometry":{"type":"Point","coordinates":[116.492968,40.022201]},"properties":{"pname":"地铁15号线","pshort":"15号线","color":"793E8C","ls":"110100023070","name":"崔各庄","en":"cui ge zhuang"}},{"type":"Feature","geometry":{"type":"Point","coordinates":[116.487105,40.0032]},"properties":{"pname":"地铁15号线","pshort":"15号线","color":"793E8C","ls":"110100023070","name":"望京东","en":"wang jing dong"}},{"type":"Feature","geometry":{"type":"Point","coordinates":[116.430947,40.001134]},"properties":{"pname":"地铁15号线","pshort":"15号线","color":"793E8C","ls":"110100023070","name":"关庄","en":"guan zhuang"}},{"type":"Feature","geometry":{"type":"Point","coordinates":[116.407845,40.002619]},"properties":{"pname":"地铁15号线","pshort":"15号线","color":"793E8C","ls":"110100023070","name":"安立路","en":"an li lu"}},{"type":"Feature","geometry":{"type":"Point","coordinates":[116.368143,40.001492]},"properties":{"pname":"地铁15号线","pshort":"15号线","color":"793E8C","ls":"110100023070","name":"北沙滩","en":"bei sha tan"}},{"type":"Feature","geometry":{"type":"Point","coordinates":[116.35267,40.000958]},"properties":{"pname":"地铁15号线","pshort":"15号线","color":"793E8C","ls":"110100023070","name":"六道口","en":"liu dao kou"}},{"type":"Feature","geometry":{"type":"Point","coordinates":[116.33953,40.000673]},"properties":{"pname":"地铁15号线","pshort":"15号线","color":"793E8C","ls":"110100023070","name":"清华东路西口","en":"qing hua dong lu xi kou"}},{"type":"Feature","geometry":{"type":"Point","coordinates":[116.130428,40.068128]},"properties":{"pname":"地铁16号线","pshort":"16号线","color":"6CB46B","ls":"900000062236","name":"北安河","en":"bei an he"}},{"type":"Feature","geometry":{"type":"Point","coordinates":[116.161361,40.068516]},"properties":{"pname":"地铁16号线","pshort":"16号线","color":"6CB46B","ls":"900000062236","name":"温阳路","en":"wen yang lu"}},{"type":"Feature","geometry":{"type":"Point","coordinates":[116.188145,40.068936]},"properties":{"pname":"地铁16号线","pshort":"16号线","color":"6CB46B","ls":"900000062236","name":"稻香湖路","en":"dao xiang hu lu"}},{"type":"Feature","geometry":{"type":"Point","coordinates":[116.21585,40.068454]},"properties":{"pname":"地铁16号线","pshort":"16号线","color":"6CB46B","ls":"900000062236","name":"屯佃","en":"tun dian"}},{"type":"Feature","geometry":{"type":"Point","coordinates":[116.238481,40.071868]},"properties":{"pname":"地铁16号线","pshort":"16号线","color":"6CB46B","ls":"900000062236","name":"永丰","en":"yong feng"}},{"type":"Feature","geometry":{"type":"Point","coordinates":[116.248154,40.065575]},"properties":{"pname":"地铁16号线","pshort":"16号线","color":"6CB46B","ls":"900000062236","name":"永丰南","en":"yong feng nan"}},{"type":"Feature","geometry":{"type":"Point","coordinates":[116.257923,40.048703]},"properties":{"pname":"地铁16号线","pshort":"16号线","color":"6CB46B","ls":"900000062236","name":"西北旺","en":"xi bei wang"}},{"type":"Feature","geometry":{"type":"Point","coordinates":[116.27252,40.032637]},"properties":{"pname":"地铁16号线","pshort":"16号线","color":"6CB46B","ls":"900000062236","name":"马连洼","en":"ma lian wa"}},{"type":"Feature","geometry":{"type":"Point","coordinates":[116.282272,40.021398]},"properties":{"pname":"地铁16号线","pshort":"16号线","color":"6CB46B","ls":"900000062236","name":"农大南路","en":"nong da nan lu"}},{"type":"Feature","geometry":{"type":"Point","coordinates":[116.531421,39.909448]},"properties":{"pname":"地铁八通线","pshort":"八通线","color":"CC0000","ls":"110100033086","name":"高碑店","en":"gao bei dian"}},{"type":"Feature","geometry":{"type":"Point","coordinates":[116.554639,39.909215]},"properties":{"pname":"地铁八通线","pshort":"八通线","color":"CC0000","ls":"110100033086","name":"传媒大学","en":"chuan mei da xue"}},{"type":"Feature","geometry":{"type":"Point","coordinates":[116.576709,39.910139]},"properties":{"pname":"地铁八通线","pshort":"八通线","color":"CC0000","ls":"110100033086","name":"双桥","en":"shuang qiao"}},{"type":"Feature","geometry":{"type":"Point","coordinates":[116.599002,39.90909]},"properties":{"pname":"地铁八通线","pshort":"八通线","color":"CC0000","ls":"110100033086","name":"管庄","en":"guan zhuang"}},{"type":"Feature","geometry":{"type":"Point","coordinates":[116.618658,39.906121]},"properties":{"pname":"地铁八通线","pshort":"八通线","color":"CC0000","ls":"110100033086","name":"八里桥","en":"ba li qiao"}},{"type":"Feature","geometry":{"type":"Point","coordinates":[116.637252,39.903864]},"properties":{"pname":"地铁八通线","pshort":"八通线","color":"CC0000","ls":"110100033086","name":"通州北苑","en":"tong zhou bei yuan"}},{"type":"Feature","geometry":{"type":"Point","coordinates":[116.646606,39.893393]},"properties":{"pname":"地铁八通线","pshort":"八通线","color":"CC0000","ls":"110100033086","name":"果园","en":"guo yuan"}},{"type":"Feature","geometry":{"type":"Point","coordinates":[116.657533,39.890278]},"properties":{"pname":"地铁八通线","pshort":"八通线","color":"CC0000","ls":"110100033086","name":"九棵树","en":"jiu ke shu"}},{"type":"Feature","geometry":{"type":"Point","coordinates":[116.66872,39.883677]},"properties":{"pname":"地铁八通线","pshort":"八通线","color":"CC0000","ls":"110100033086","name":"梨园","en":"li yuan"}},{"type":"Feature","geometry":{"type":"Point","coordinates":[116.678811,39.875496]},"properties":{"pname":"地铁八通线","pshort":"八通线","color":"CC0000","ls":"110100033086","name":"临河里","en":"lin he li"}},{"type":"Feature","geometry":{"type":"Point","coordinates":[116.686349,39.871926]},"properties":{"pname":"地铁八通线","pshort":"八通线","color":"CC0000","ls":"110100033086","name":"土桥","en":"tu qiao"}},{"type":"Feature","geometry":{"type":"Point","coordinates":[116.195371,40.244624]},"properties":{"pname":"地铁昌平线","pshort":"昌平线","color":"EB81B9","ls":"110100023118","name":"昌平西山口","en":"chang ping xi shan kou"}},{"type":"Feature","geometry":{"type":"Point","coordinates":[116.207729,40.240255]},"properties":{"pname":"地铁昌平线","pshort":"昌平线","color":"EB81B9","ls":"110100023118","name":"十三陵景区","en":"shi san ling jing qu"}},{"type":"Feature","geometry":{"type":"Point","coordinates":[116.23359,40.22055]},"properties":{"pname":"地铁昌平线","pshort":"昌平线","color":"EB81B9","ls":"110100023118","name":"昌平","en":"chang ping"}},{"type":"Feature","geometry":{"type":"Point","coordinates":[116.262059,40.221726]},"properties":{"pname":"地铁昌平线","pshort":"昌平线","color":"EB81B9","ls":"110100023118","name":"昌平东关","en":"chang ping dong guan"}},{"type":"Feature","geometry":{"type":"Point","coordinates":[116.281949,40.222001]},"properties":{"pname":"地铁昌平线","pshort":"昌平线","color":"EB81B9","ls":"110100023118","name":"北邵洼","en":"bei shao wa"}},{"type":"Feature","geometry":{"type":"Point","coordinates":[116.287534,40.207492]},"properties":{"pname":"地铁昌平线","pshort":"昌平线","color":"EB81B9","ls":"110100023118","name":"南邵","en":"nan shao"}},{"type":"Feature","geometry":{"type":"Point","coordinates":[116.280465,40.164666]},"properties":{"pname":"地铁昌平线","pshort":"昌平线","color":"EB81B9","ls":"110100023118","name":"沙河高教园","en":"sha he gao jiao yuan"}},{"type":"Feature","geometry":{"type":"Point","coordinates":[116.288865,40.148278]},"properties":{"pname":"地铁昌平线","pshort":"昌平线","color":"EB81B9","ls":"110100023118","name":"沙河","en":"sha he"}},{"type":"Feature","geometry":{"type":"Point","coordinates":[116.293979,40.1309]},"properties":{"pname":"地铁昌平线","pshort":"昌平线","color":"EB81B9","ls":"110100023118","name":"巩华城","en":"gong hua cheng"}},{"type":"Feature","geometry":{"type":"Point","coordinates":[116.29423,40.09479]},"properties":{"pname":"地铁昌平线","pshort":"昌平线","color":"EB81B9","ls":"110100023118","name":"生命科学园","en":"sheng ming ke xue yuan"}},{"type":"Feature","geometry":{"type":"Point","coordinates":[116.365522,39.735583]},"properties":{"pname":"北京大兴国际机场线","pshort":"大兴国际机场线","color":"2249A3","ls":"900000076659","name":"大兴新城","en":"DaXing XinCheng"}},{"type":"Feature","geometry":{"type":"Point","coordinates":[116.416725,39.511375]},"properties":{"pname":"北京大兴国际机场线","pshort":"大兴国际机场线","color":"2249A3","ls":"900000076659","name":"大兴机场","en":"DaXing JiChang"}},{"type":"Feature","geometry":{"type":"Point","coordinates":[116.100817,39.729028]},"properties":{"pname":"地铁房山线","pshort":"房山线","color":"EE782E","ls":"110100023092","name":"阎村东","en":"yan cun dong"}},{"type":"Feature","geometry":{"type":"Point","coordinates":[116.125306,39.723188]},"properties":{"pname":"地铁房山线","pshort":"房山线","color":"EE782E","ls":"110100023092","name":"苏庄","en":"su zhuang"}},{"type":"Feature","geometry":{"type":"Point","coordinates":[116.140804,39.723202]},"properties":{"pname":"地铁房山线","pshort":"房山线","color":"EE782E","ls":"110100023092","name":"良乡南关","en":"liang xiang nan guan"}},{"type":"Feature","geometry":{"type":"Point","coordinates":[116.156282,39.723157]},"properties":{"pname":"地铁房山线","pshort":"房山线","color":"EE782E","ls":"110100023092","name":"良乡大学城西","en":"liang xiang da xue cheng xi"}},{"type":"Feature","geometry":{"type":"Point","coordinates":[116.176541,39.723159]},"properties":{"pname":"地铁房山线","pshort":"房山线","color":"EE782E","ls":"110100023092","name":"良乡大学城","en":"liang xiang da xue cheng"}},{"type":"Feature","geometry":{"type":"Point","coordinates":[116.18348,39.729906]},"properties":{"pname":"地铁房山线","pshort":"房山线","color":"EE782E","ls":"110100023092","name":"良乡大学城北","en":"liang xiang da xue cheng bei"}},{"type":"Feature","geometry":{"type":"Point","coordinates":[116.184985,39.74793]},"properties":{"pname":"地铁房山线","pshort":"房山线","color":"EE782E","ls":"110100023092","name":"广阳城","en":"guang yang cheng"}},{"type":"Feature","geometry":{"type":"Point","coordinates":[116.189486,39.760636]},"properties":{"pname":"地铁房山线","pshort":"房山线","color":"EE782E","ls":"110100023092","name":"篱笆房","en":"li ba fang"}},{"type":"Feature","geometry":{"type":"Point","coordinates":[116.212692,39.763871]},"properties":{"pname":"地铁房山线","pshort":"房山线","color":"EE782E","ls":"110100023092","name":"长阳","en":"chang yang"}},{"type":"Feature","geometry":{"type":"Point","coordinates":[116.21884,39.794885]},"properties":{"pname":"地铁房山线","pshort":"房山线","color":"EE782E","ls":"110100023092","name":"稻田","en":"dao tian"}},{"type":"Feature","geometry":{"type":"Point","coordinates":[116.291681,39.80781]},"properties":{"pname":"地铁房山线","pshort":"房山线","color":"EE782E","ls":"110100023092","name":"大葆台","en":"da bao tai"}},{"type":"Feature","geometry":{"type":"Point","coordinates":[116.615583,40.052657]},"properties":{"pname":"首都机场线","pshort":"首都机场线","color":"A49ABD","ls":"110100023096","name":"T3航站楼","en":"T3 hang zhan lou"}},{"type":"Feature","geometry":{"type":"Point","coordinates":[116.592808,40.079311]},"properties":{"pname":"首都机场线","pshort":"首都机场线","color":"A49ABD","ls":"110100023096","name":"T2航站楼","en":"T2 hang zhan lou"}},{"type":"Feature","geometry":{"type":"Point","coordinates":[116.263248,39.985697]},"properties":{"pname":"西郊线","pshort":"西郊线","color":"FC0601","ls":"110100023060","name":"颐和园西门","en":"yi he yuan xi men"}},{"type":"Feature","geometry":{"type":"Point","coordinates":[116.2481,39.982113]},"properties":{"pname":"西郊线","pshort":"西郊线","color":"FC0601","ls":"110100023060","name":"茶棚","en":"cha peng"}},{"type":"Feature","geometry":{"type":"Point","coordinates":[116.231977,39.984001]},"properties":{"pname":"西郊线","pshort":"西郊线","color":"FC0601","ls":"110100023060","name":"万安","en":"wan an"}},{"type":"Feature","geometry":{"type":"Point","coordinates":[116.214853,39.993582]},"properties":{"pname":"西郊线","pshort":"西郊线","color":"FC0601","ls":"110100023060","name":"植物园","en":"zhi wu yuan"}},{"type":"Feature","geometry":{"type":"Point","coordinates":[116.204491,39.994056]},"properties":{"pname":"西郊线","pshort":"西郊线","color":"FC0601","ls":"110100023060","name":"香山","en":"xiang shan"}},{"type":"Feature","geometry":{"type":"Point","coordinates":[116.08672,39.724606]},"properties":{"pname":"地铁燕房线","pshort":"燕房线","color":"EE782E","ls":"900000029622","name":"紫草坞","en":"zi cao wu"}},{"type":"Feature","geometry":{"type":"Point","coordinates":[116.080165,39.716731]},"properties":{"pname":"地铁燕房线","pshort":"燕房线","color":"EE782E","ls":"900000029622","name":"阎村","en":"yan cun"}},{"type":"Feature","geometry":{"type":"Point","coordinates":[116.06137,39.713681]},"properties":{"pname":"地铁燕房线","pshort":"燕房线","color":"EE782E","ls":"900000029622","name":"星城","en":"xing cheng"}},{"type":"Feature","geometry":{"type":"Point","coordinates":[116.039906,39.709893]},"properties":{"pname":"地铁燕房线","pshort":"燕房线","color":"EE782E","ls":"900000029622","name":"大石河东","en":"da shi he dong"}},{"type":"Feature","geometry":{"type":"Point","coordinates":[116.016606,39.705103]},"properties":{"pname":"地铁燕房线","pshort":"燕房线","color":"EE782E","ls":"900000029622","name":"马各庄","en":"ma ge zhuang"}},{"type":"Feature","geometry":{"type":"Point","coordinates":[116.006103,39.701471]},"properties":{"pname":"地铁燕房线","pshort":"燕房线","color":"EE782E","ls":"900000029622","name":"饶乐府","en":"rao le fu"}},{"type":"Feature","geometry":{"type":"Point","coordinates":[115.989599,39.706061]},"properties":{"pname":"地铁燕房线","pshort":"燕房线","color":"EE782E","ls":"900000029622","name":"房山城关","en":"fang shan cheng guan"}},{"type":"Feature","geometry":{"type":"Point","coordinates":[115.973395,39.719615]},"properties":{"pname":"地铁燕房线","pshort":"燕房线","color":"EE782E","ls":"900000029622","name":"燕山","en":"yan shan"}},{"type":"Feature","geometry":{"type":"Point","coordinates":[116.448364,39.834217]},"properties":{"pname":"地铁亦庄线","pshort":"亦庄线","color":"F0087D","ls":"110100023102","name":"肖村","en":"xiao cun"}},{"type":"Feature","geometry":{"type":"Point","coordinates":[116.459226,39.827951]},"properties":{"pname":"地铁亦庄线","pshort":"亦庄线","color":"F0087D","ls":"110100023102","name":"小红门","en":"xiao hong men"}},{"type":"Feature","geometry":{"type":"Point","coordinates":[116.460789,39.80691]},"properties":{"pname":"地铁亦庄线","pshort":"亦庄线","color":"F0087D","ls":"110100023102","name":"旧宫","en":"jiu gong"}},{"type":"Feature","geometry":{"type":"Point","coordinates":[116.480307,39.803011]},"properties":{"pname":"地铁亦庄线","pshort":"亦庄线","color":"F0087D","ls":"110100023102","name":"亦庄桥","en":"yi zhuang qiao"}},{"type":"Feature","geometry":{"type":"Point","coordinates":[116.490632,39.80689]},"properties":{"pname":"地铁亦庄线","pshort":"亦庄线","color":"F0087D","ls":"110100023102","name":"亦庄文化园","en":"yi zhuang wen hua yuan"}},{"type":"Feature","geometry":{"type":"Point","coordinates":[116.505403,39.802971]},"properties":{"pname":"地铁亦庄线","pshort":"亦庄线","color":"F0087D","ls":"110100023102","name":"万源街","en":"wan yuan jie"}},{"type":"Feature","geometry":{"type":"Point","coordinates":[116.513321,39.793189]},"properties":{"pname":"地铁亦庄线","pshort":"亦庄线","color":"F0087D","ls":"110100023102","name":"荣京东街","en":"rong jing dong jie"}},{"type":"Feature","geometry":{"type":"Point","coordinates":[116.521688,39.782832]},"properties":{"pname":"地铁亦庄线","pshort":"亦庄线","color":"F0087D","ls":"110100023102","name":"荣昌东街","en":"rong chang dong jie"}},{"type":"Feature","geometry":{"type":"Point","coordinates":[116.539901,39.772962]},"properties":{"pname":"地铁亦庄线","pshort":"亦庄线","color":"F0087D","ls":"110100023102","name":"同济南路","en":"tong ji nan lu"}},{"type":"Feature","geometry":{"type":"Point","coordinates":[116.562321,39.783673]},"properties":{"pname":"地铁亦庄线","pshort":"亦庄线","color":"F0087D","ls":"110100023102","name":"经海路","en":"jing hai lu"}},{"type":"Feature","geometry":{"type":"Point","coordinates":[116.581357,39.795118]},"properties":{"pname":"地铁亦庄线","pshort":"亦庄线","color":"F0087D","ls":"110100023102","name":"次渠南","en":"ci qu nan"}},{"type":"Feature","geometry":{"type":"Point","coordinates":[116.591502,39.8035]},"properties":{"pname":"地铁亦庄线","pshort":"亦庄线","color":"F0087D","ls":"110100023102","name":"次渠","en":"ci qu"}},{"type":"Feature","geometry":{"type":"Point","coordinates":[116.601913,39.812607]},"properties":{"pname":"地铁亦庄线","pshort":"亦庄线","color":"F0087D","ls":"110100023102","name":"亦庄火车站","en":"yi zhuang huo che zhan"}}]}