{"type":"FeatureCollection","features":[{"type":"Feature","geometry":{"type":"Point","coordinates":[116.15694629641214,39.92228383466899]},"properties":{"pname":"S1线","pshort":"S1线","color":"B35A1F","ls":"900000069871","name":"金安桥","en":"jin an qiao"}},{"type":"Feature","geometry":{"type":"Point","coordinates":[116.12772049569719,39.9146500184833]},"properties":{"pname":"S1线","pshort":"S1线","color":"B35A1F","ls":"900000069871","name":"四道桥","en":"si dao qiao"}},{"type":"Feature","geometry":{"type":"Point","coordinates":[116.11950569986229,39.91099498802395]},"properties":{"pname":"S1线","pshort":"S1线","color":"B35A1F","ls":"900000069871","name":"桥户营","en":"qiao hu ying"}},{"type":"Feature","geometry":{"type":"Point","coordinates":[116.11591735910739,39.903747479757484]},"properties":{"pname":"S1线","pshort":"S1线","color":"B35A1F","ls":"900000069871","name":"上岸","en":"shang an"}},{"type":"Feature","geometry":{"type":"Point","coordinates":[116.11694900897464,39.894390661705714]},"properties":{"pname":"S1线","pshort":"S1线","color":"B35A1F","ls":"900000069871","name":"栗园庄","en":"li yuan zhuang"}},{"type":"Feature","geometry":{"type":"Point","coordinates":[116.1081279902809,39.88907073070327]},"properties":{"pname":"S1线","pshort":"S1线","color":"B35A1F","ls":"900000069871","name":"小园","en":"xiao yuan"}},{"type":"Feature","geometry":{"type":"Point","coordinates":[116.09401061189631,39.88798221716426]},"properties":{"pname":"S1线","pshort":"S1线","color":"B35A1F","ls":"900000069871","name":"石厂","en":"shi chang"}},{"type":"Feature","geometry":{"type":"Point","coordinates":[116.1712068362372,39.925416998418044]},"properties":{"pname":"地铁1号线","pshort":"1号线","color":"CC0000","ls":"110100023110","name":"苹果园","en":"ping guo yuan"}},{"type":"Feature","geometry":{"type":"Point","coordinates":[116.18419464799838,39.9061649057426]},"properties":{"pname":"地铁1号线","pshort":"1号线","color":"CC0000","ls":"110100023110","name":"古城","en":"gu cheng"}},{"type":"Feature","geometry":{"type":"Point","coordinates":[116.20659795333813,39.90619383487113]},"properties":{"pname":"地铁1号线","pshort":"1号线","color":"CC0000","ls":"110100023110","name":"八角游乐园","en":"ba jiao you le yuan"}},{"type":"Feature","geometry":{"type":"Point","coordinates":[116.22990308705121,39.90621729062536]},"properties":{"pname":"地铁1号线","pshort":"1号线","color":"CC0000","ls":"110100023110","name":"八宝山","en":"ba bao shan"}},{"type":"Feature","geometry":{"type":"Point","coordinates":[116.24685761505795,39.90621727160412]},"properties":{"pname":"地铁1号线","pshort":"1号线","color":"CC0000","ls":"110100023110","name":"玉泉路","en":"yu quan lu"}},{"type":"Feature","geometry":{"type":"Point","coordinates":[116.26795466681787,39.90623393404532]},"properties":{"pname":"地铁1号线","pshort":"1号线","color":"CC0000","ls":"110100023110","name":"五棵松","en":"wu ke song"}},{"type":"Feature","geometry":{"type":"Point","coordinates":[116.28871040809268,39.90623048221033]},"properties":{"pname":"地铁1号线","pshort":"1号线","color":"CC0000","ls":"110100023110","name":"万寿路","en":"wan shou lu"}},{"type":"Feature","geometry":{"type":"Point","coordinates":[116.30383798907765,39.90620228641842]},"properties":{"pname":"地铁1号线","pshort":"1号线","color":"CC0000","ls":"110100023110","name":"公主坟","en":"gong zhu fen"}},{"type":"Feature","geometry":{"type":"Point","coordinates":[116.31535392870974,39.90613475546254]},"properties":{"pname":"地铁1号线","pshort":"1号线","color":"CC0000","ls":"110100023110","name":"军事博物馆","en":"jun shi bo wu guan"}},{"type":"Feature","geometry":{"type":"Point","coordinates":[116.331441493579,39.906061153655905]},"properties":{"pname":"地铁1号线","pshort":"1号线","color":"CC0000","ls":"110100023110","name":"木樨地","en":"mu xi di"}},{"type":"Feature","geometry":{"type":"Point","coordinates":[116.34640795509208,39.905888224589425]},"properties":{"pname":"地铁1号线","pshort":"1号线","color":"CC0000","ls":"110100023110","name":"南礼士路","en":"nan li shi lu"}},{"type":"Feature","geometry":{"type":"Point","coordinates":[116.350681923197,39.905888720455415]},"properties":{"pname":"地铁1号线","pshort":"1号线","color":"CC0000","ls":"110100023110","name":"复兴门","en":"fu xing men"}},{"type":"Feature","geometry":{"type":"Point","coordinates":[116.3678562542423,39.90600335507761]},"properties":{"pname":"地铁1号线","pshort":"1号线","color":"CC0000","ls":"110100023110","name":"西单","en":"xi dan"}},{"type":"Feature","geometry":{"type":"Point","coordinates":[116.38504126694914,39.90607457264257]},"properties":{"pname":"地铁1号线","pshort":"1号线","color":"CC0000","ls":"110100023110","name":"天安门西","en":"tian an men xi"}},{"type":"Feature","geometry":{"type":"Point","coordinates":[116.39497339095324,39.906377292400336]},"properties":{"pname":"地铁1号线","pshort":"1号线","color":"CC0000","ls":"110100023110","name":"天安门东","en":"tian an men dong"}},{"type":"Feature","geometry":{"type":"Point","coordinates":[116.40532782610421,39.90666520035614]},"properties":{"pname":"地铁1号线","pshort":"1号线","color":"CC0000","ls":"110100023110","name":"王府井","en":"wang fu jing"}},{"type":"Feature","geometry":{"type":"Point","coordinates":[116.41223976096747,39.90692310078902]},"properties":{"pname":"地铁1号线","pshort":"1号线","color":"CC0000","ls":"110100023110","name":"东单","en":"dong dan"}},{"type":"Feature","geometry":{"type":"Point","coordinates":[116.42958509895305,39.90711333285465]},"properties":{"pname":"地铁1号线","pshort":"1号线","color":"CC0000","ls":"110100023110","name":"建国门","en":"jian guo men"}},{"type":"Feature","geometry":{"type":"Point","coordinates":[116.44430542078629,39.90708864537409]},"properties":{"pname":"地铁1号线","pshort":"1号线","color":"CC0000","ls":"110100023110","name":"永安里","en":"yong an li"}},{"type":"Feature","geometry":{"type":"Point","coordinates":[116.45567924050516,39.907761630534104]},"properties":{"pname":"地铁1号线","pshort":"1号线","color":"CC0000","ls":"110100023110","name":"国贸","en":"guo mao"}},{"type":"Feature","geometry":{"type":"Point","coordinates":[116.4696652501947,39.90697869091367]},"properties":{"pname":"地铁1号线","pshort":"1号线","color":"CC0000","ls":"110100023110","name":"大望路","en":"da wang lu"}},{"type":"Feature","geometry":{"type":"Point","coordinates":[116.48940930473839,39.90749616528891]},"properties":{"pname":"地铁1号线","pshort":"1号线","color":"CC0000","ls":"110100023110","name":"四惠","en":"si hui"}},{"type":"Feature","geometry":{"type":"Point","coordinates":[116.50969419306112,39.90730263971301]},"properties":{"pname":"地铁1号线","pshort":"1号线","color":"CC0000","ls":"110100023110","name":"四惠东","en":"si hui dong"}},{"type":"Feature","geometry":{"type":"Point","coordinates":[116.36690651586339,39.94727291863847]},"properties":{"pname":"地铁2号线","pshort":"2号线","color":"0065B3","ls":"110100023098","name":"积水潭","en":"ji shui tan"}},{"type":"Feature","geometry":{"type":"Point","coordinates":[116.38753204366967,39.94757117220522]},"properties":{"pname":"地铁2号线","pshort":"2号线","color":"0065B3","ls":"110100023098","name":"鼓楼大街","en":"gu lou da jie"}},{"type":"Feature","geometry":{"type":"Point","coordinates":[116.40199110754615,39.94777434794766]},"properties":{"pname":"地铁2号线","pshort":"2号线","color":"0065B3","ls":"110100023098","name":"安定门","en":"an ding men"}},{"type":"Feature","geometry":{"type":"Point","coordinates":[116.41082270000527,39.94793184834997]},"properties":{"pname":"地铁2号线","pshort":"2号线","color":"0065B3","ls":"110100023098","name":"雍和宫","en":"yong he gong"}},{"type":"Feature","geometry":{"type":"Point","coordinates":[116.42961693352376,39.94023699841792]},"properties":{"pname":"地铁2号线","pshort":"2号线","color":"0065B3","ls":"110100023098","name":"东直门","en":"dong zhi men"}},{"type":"Feature","geometry":{"type":"Point","coordinates":[116.42790626713891,39.93241031135892]},"properties":{"pname":"地铁2号线","pshort":"2号线","color":"0065B3","ls":"110100023098","name":"东四十条","en":"dong si shi tiao"}},{"type":"Feature","geometry":{"type":"Point","coordinates":[116.42835914094925,39.92310920878278]},"properties":{"pname":"地铁2号线","pshort":"2号线","color":"0065B3","ls":"110100023098","name":"朝阳门","en":"zhao yang men"}},{"type":"Feature","geometry":{"type":"Point","coordinates":[116.42105490500566,39.90358680329783]},"properties":{"pname":"地铁2号线","pshort":"2号线","color":"0065B3","ls":"110100023098","name":"北京站","en":"bei jing zhan"}},{"type":"Feature","geometry":{"type":"Point","coordinates":[116.41085287427879,39.8996608672103]},"properties":{"pname":"地铁2号线","pshort":"2号线","color":"0065B3","ls":"110100023098","name":"崇文门","en":"chong wen men"}},{"type":"Feature","geometry":{"type":"Point","coordinates":[116.39169672614844,39.89879092424506]},"properties":{"pname":"地铁2号线","pshort":"2号线","color":"0065B3","ls":"110100023098","name":"前门","en":"qian men"}},{"type":"Feature","geometry":{"type":"Point","coordinates":[116.37798027925439,39.898706971665895]},"properties":{"pname":"地铁2号线","pshort":"2号线","color":"0065B3","ls":"110100023098","name":"和平门","en":"he ping men"}},{"type":"Feature","geometry":{"type":"Point","coordinates":[116.36809884187181,39.898385375784294]},"properties":{"pname":"地铁2号线","pshort":"2号线","color":"0065B3","ls":"110100023098","name":"宣武门","en":"xuan wu men"}},{"type":"Feature","geometry":{"type":"Point","coordinates":[116.35715898855322,39.89806932465202]},"properties":{"pname":"地铁2号线","pshort":"2号线","color":"0065B3","ls":"110100023098","name":"长椿街","en":"chang chun jie"}},{"type":"Feature","geometry":{"type":"Point","coordinates":[116.34982462454884,39.92233350286903]},"properties":{"pname":"地铁2号线","pshort":"2号线","color":"0065B3","ls":"110100023098","name":"阜成门","en":"fu cheng men"}},{"type":"Feature","geometry":{"type":"Point","coordinates":[116.34817499479784,39.93104703156452]},"properties":{"pname":"地铁2号线","pshort":"2号线","color":"0065B3","ls":"110100023098","name":"车公庄","en":"che gong zhuang"}},{"type":"Feature","geometry":{"type":"Point","coordinates":[116.34924072144808,39.93912183826983]},"properties":{"pname":"地铁2号线","pshort":"2号线","color":"0065B3","ls":"110100023098","name":"西直门","en":"xi zhi men"}},{"type":"Feature","geometry":{"type":"Point","coordinates":[116.31385974536128,39.66907980855905]},"properties":{"pname":"地铁4号线大兴线","pshort":"4号线大兴线","color":"008187","ls":"110100023076","name":"天宫院","en":"tian gong yuan"}},{"type":"Feature","geometry":{"type":"Point","coordinates":[116.31558398705162,39.68524197097492]},"properties":{"pname":"地铁4号线大兴线","pshort":"4号线大兴线","color":"008187","ls":"110100023076","name":"生物医药基地","en":"sheng wu yi yao ji di"}},{"type":"Feature","geometry":{"type":"Point","coordinates":[116.3130033738457,39.71111992202573]},"properties":{"pname":"地铁4号线大兴线","pshort":"4号线大兴线","color":"008187","ls":"110100023076","name":"义和庄","en":"yi he zhuang"}},{"type":"Feature","geometry":{"type":"Point","coordinates":[116.32650391856946,39.72167204980413]},"properties":{"pname":"地铁4号线大兴线","pshort":"4号线大兴线","color":"008187","ls":"110100023076","name":"黄村火车站","en":"huang cun huo che zhan"}},{"type":"Feature","geometry":{"type":"Point","coordinates":[116.32652277729474,39.73047390065485]},"properties":{"pname":"地铁4号线大兴线","pshort":"4号线大兴线","color":"008187","ls":"110100023076","name":"黄村西大街","en":"huang cun xi da jie"}},{"type":"Feature","geometry":{"type":"Point","coordinates":[116.32640368216238,39.741427819676865]},"properties":{"pname":"地铁4号线大兴线","pshort":"4号线大兴线","color":"008187","ls":"110100023076","name":"清源路","en":"qing yuan lu"}},{"type":"Feature","geometry":{"type":"Point","coordinates":[116.32609404927342,39.752161208974485]},"properties":{"pname":"地铁4号线大兴线","pshort":"4号线大兴线","color":"008187","ls":"110100023076","name":"枣园","en":"zao yuan"}},{"type":"Feature","geometry":{"type":"Point","coordinates":[116.32549516372401,39.762192298894284]},"properties":{"pname":"地铁4号线大兴线","pshort":"4号线大兴线","color":"008187","ls":"110100023076","name":"高米店南","en":"gao mi dian nan"}},{"type":"Feature","geometry":{"type":"Point","coordinates":[116.32467777116777,39.77225086635318]},"properties":{"pname":"地铁4号线大兴线","pshort":"4号线大兴线","color":"008187","ls":"110100023076","name":"高米店北","en":"gao mi dian bei"}},{"type":"Feature","geometry":{"type":"Point","coordinates":[116.3225825026843,39.78850638329889]},"properties":{"pname":"地铁4号线大兴线","pshort":"4号线大兴线","color":"008187","ls":"110100023076","name":"西红门","en":"xi hong men"}},{"type":"Feature","geometry":{"type":"Point","coordinates":[116.35935983374938,39.811229933666304]},"properties":{"pname":"地铁4号线大兴线","pshort":"4号线大兴线","color":"008187","ls":"110100023076","name":"新宫","en":"xin gong"}},{"type":"Feature","geometry":{"type":"Point","coordinates":[116.36459460019177,39.8347635637473]},"properties":{"pname":"地铁4号线大兴线","pshort":"4号线大兴线","color":"008187","ls":"110100023076","name":"公益西桥","en":"gong yi xi qiao"}},{"type":"Feature","geometry":{"type":"Point","coordinates":[116.36495077257634,39.844477454025416]},"properties":{"pname":"地铁4号线大兴线","pshort":"4号线大兴线","color":"008187","ls":"110100023076","name":"角门西","en":"jiao men xi"}},{"type":"Feature","geometry":{"type":"Point","coordinates":[116.36515650987069,39.85173573466267]},"properties":{"pname":"地铁4号线大兴线","pshort":"4号线大兴线","color":"008187","ls":"110100023076","name":"马家堡","en":"ma jia bao"}},{"type":"Feature","geometry":{"type":"Point","coordinates":[116.37274540470695,39.86364534247475]},"properties":{"pname":"地铁4号线大兴线","pshort":"4号线大兴线","color":"008187","ls":"110100023076","name":"北京南站","en":"bei jing nan zhan"}},{"type":"Feature","geometry":{"type":"Point","coordinates":[116.36817043352555,39.877091296146986]},"properties":{"pname":"地铁4号线大兴线","pshort":"4号线大兴线","color":"008187","ls":"110100023076","name":"陶然亭","en":"tao ran ting"}},{"type":"Feature","geometry":{"type":"Point","coordinates":[116.36821099626744,39.887916714310386]},"properties":{"pname":"地铁4号线大兴线","pshort":"4号线大兴线","color":"008187","ls":"110100023076","name":"菜市口","en":"cai shi kou"}},{"type":"Feature","geometry":{"type":"Point","coordinates":[116.36752968559004,39.91453241869426]},"properties":{"pname":"地铁4号线大兴线","pshort":"4号线大兴线","color":"008187","ls":"110100023076","name":"灵境胡同","en":"ling jing hu tong"}},{"type":"Feature","geometry":{"type":"Point","coordinates":[116.3671152906534,39.92282662299987]},"properties":{"pname":"地铁4号线大兴线","pshort":"4号线大兴线","color":"008187","ls":"110100023076","name":"西四","en":"xi si"}},{"type":"Feature","geometry":{"type":"Point","coordinates":[116.36666577410195,39.93256982910741]},"properties":{"pname":"地铁4号线大兴线","pshort":"4号线大兴线","color":"008187","ls":"110100023076","name":"平安里","en":"ping an li"}},{"type":"Feature","geometry":{"type":"Point","coordinates":[116.3615326591372,39.93929484981474]},"properties":{"pname":"地铁4号线大兴线","pshort":"4号线大兴线","color":"008187","ls":"110100023076","name":"新街口","en":"xin jie kou"}},{"type":"Feature","geometry":{"type":"Point","coordinates":[116.33288229916563,39.93692811274318]},"properties":{"pname":"地铁4号线大兴线","pshort":"4号线大兴线","color":"008187","ls":"110100023076","name":"动物园","en":"dong wu yuan"}},{"type":"Feature","geometry":{"type":"Point","coordinates":[116.31907220170338,39.94181831694931]},"properties":{"pname":"地铁4号线大兴线","pshort":"4号线大兴线","color":"008187","ls":"110100023076","name":"国家图书馆","en":"guo jia tu shu guan"}},{"type":"Feature","geometry":{"type":"Point","coordinates":[116.31710472921269,39.95661143187515]},"properties":{"pname":"地铁4号线大兴线","pshort":"4号线大兴线","color":"008187","ls":"110100023076","name":"魏公村","en":"wei gong cun"}},{"type":"Feature","geometry":{"type":"Point","coordinates":[116.3152546726519,39.965666523004266]},"properties":{"pname":"地铁4号线大兴线","pshort":"4号线大兴线","color":"008187","ls":"110100023076","name":"人民大学","en":"ren min da xue"}},{"type":"Feature","geometry":{"type":"Point","coordinates":[116.31145875103805,39.97471312679788]},"properties":{"pname":"地铁4号线大兴线","pshort":"4号线大兴线","color":"008187","ls":"110100023076","name":"海淀黄庄","en":"hai dian huang zhuang"}},{"type":"Feature","geometry":{"type":"Point","coordinates":[116.3103630720129,39.98270978215197]},"properties":{"pname":"地铁4号线大兴线","pshort":"4号线大兴线","color":"008187","ls":"110100023076","name":"中关村","en":"zhong guan cun"}},{"type":"Feature","geometry":{"type":"Point","coordinates":[116.30973835493077,39.9909315648041]},"properties":{"pname":"地铁4号线大兴线","pshort":"4号线大兴线","color":"008187","ls":"110100023076","name":"北京大学东门","en":"bei jing da xue dong men"}},{"type":"Feature","geometry":{"type":"Point","coordinates":[116.30409293763464,39.998391107583835]},"properties":{"pname":"地铁4号线大兴线","pshort":"4号线大兴线","color":"008187","ls":"110100023076","name":"圆明园","en":"yuan ming yuan"}},{"type":"Feature","geometry":{"type":"Point","coordinates":[116.28484758163015,39.997015801043695]},"properties":{"pname":"地铁4号线大兴线","pshort":"4号线大兴线","color":"008187","ls":"110100023076","name":"西苑","en":"xi yuan"}},{"type":"Feature","geometry":{"type":"Point","coordinates":[116.27160030481188,40.00114432808048]},"properties":{"pname":"地铁4号线大兴线","pshort":"4号线大兴线","color":"008187","ls":"110100023076","name":"北宫门","en":"bei gong men"}},{"type":"Feature","geometry":{"type":"Point","coordinates":[116.26391270230229,40.01097113486418]},"properties":{"pname":"地铁4号线大兴线","pshort":"4号线大兴线","color":"008187","ls":"110100023076","name":"安河桥北","en":"an he qiao bei"}},{"type":"Feature","geometry":{"type":"Point","coordinates":[116.4221446842924,39.84445678675593]},"properties":{"pname":"地铁5号线","pshort":"5号线","color":"A61D7F","ls":"110100023100","name":"宋家庄","en":"song jia zhuang"}},{"type":"Feature","geometry":{"type":"Point","coordinates":[116.41588788581029,39.8561234894819]},"properties":{"pname":"地铁5号线","pshort":"5号线","color":"A61D7F","ls":"110100023100","name":"刘家窑","en":"liu jia yao"}},{"type":"Feature","geometry":{"type":"Point","coordinates":[116.4174892611059,39.86422405311671]},"properties":{"pname":"地铁5号线","pshort":"5号线","color":"A61D7F","ls":"110100023100","name":"蒲黄榆","en":"pu huang yu"}},{"type":"Feature","geometry":{"type":"Point","coordinates":[116.41459767452444,39.88115843560912]},"properties":{"pname":"地铁5号线","pshort":"5号线","color":"A61D7F","ls":"110100023100","name":"天坛东门","en":"tian tan dong men"}},{"type":"Feature","geometry":{"type":"Point","coordinates":[116.41370266665336,39.89177146374393]},"properties":{"pname":"地铁5号线","pshort":"5号线","color":"A61D7F","ls":"110100023100","name":"磁器口","en":"ci qi kou"}},{"type":"Feature","geometry":{"type":"Point","coordinates":[116.41154121787136,39.91571043281821]},"properties":{"pname":"地铁5号线","pshort":"5号线","color":"A61D7F","ls":"110100023100","name":"灯市口","en":"deng shi kou"}},{"type":"Feature","geometry":{"type":"Point","coordinates":[116.41125012435408,39.9229670148881]},"properties":{"pname":"地铁5号线","pshort":"5号线","color":"A61D7F","ls":"110100023100","name":"东四","en":"dong si"}},{"type":"Feature","geometry":{"type":"Point","coordinates":[116.41091175852762,39.93218850965401]},"properties":{"pname":"地铁5号线","pshort":"5号线","color":"A61D7F","ls":"110100023100","name":"张自忠路","en":"zhang zi zhong lu"}},{"type":"Feature","geometry":{"type":"Point","coordinates":[116.4106386928487,39.939378121073766]},"properties":{"pname":"地铁5号线","pshort":"5号线","color":"A61D7F","ls":"110100023100","name":"北新桥","en":"bei xin qiao"}},{"type":"Feature","geometry":{"type":"Point","coordinates":[116.41225733983913,39.957330051503774]},"properties":{"pname":"地铁5号线","pshort":"5号线","color":"A61D7F","ls":"110100023100","name":"和平里北街","en":"he ping li bei jie"}},{"type":"Feature","geometry":{"type":"Point","coordinates":[116.41172678223596,39.966981447036204]},"properties":{"pname":"地铁5号线","pshort":"5号线","color":"A61D7F","ls":"110100023100","name":"和平西桥","en":"he ping xi qiao"}},{"type":"Feature","geometry":{"type":"Point","coordinates":[116.4112874091433,39.97571592365913]},"properties":{"pname":"地铁5号线","pshort":"5号线","color":"A61D7F","ls":"110100023100","name":"惠新西街南口","en":"hui xin xi jie nan kou"}},{"type":"Feature","geometry":{"type":"Point","coordinates":[116.41077675446118,39.98643029624598]},"properties":{"pname":"地铁5号线","pshort":"5号线","color":"A61D7F","ls":"110100023100","name":"惠新西街北口","en":"hui xin xi jie bei kou"}},{"type":"Feature","geometry":{"type":"Point","coordinates":[116.41112389823596,40.00243475184866]},"properties":{"pname":"地铁5号线","pshort":"5号线","color":"A61D7F","ls":"110100023100","name":"大屯路东","en":"da tun lu dong"}},{"type":"Feature","geometry":{"type":"Point","coordinates":[116.41183290512,40.02902881211141]},"properties":{"pname":"地铁5号线","pshort":"5号线","color":"A61D7F","ls":"110100023100","name":"北苑路北","en":"bei yuan lu bei"}},{"type":"Feature","geometry":{"type":"Point","coordinates":[116.40823662762685,40.04054703424702]},"properties":{"pname":"地铁5号线","pshort":"5号线","color":"A61D7F","ls":"110100023100","name":"立水桥南","en":"li shui qiao nan"}},{"type":"Feature","geometry":{"type":"Point","coordinates":[116.40608848045697,40.051621998814255]},"properties":{"pname":"地铁5号线","pshort":"5号线","color":"A61D7F","ls":"110100023100","name":"立水桥","en":"li shui qiao"}},{"type":"Feature","geometry":{"type":"Point","coordinates":[116.40639784593583,40.06504726813188]},"properties":{"pname":"地铁5号线","pshort":"5号线","color":"A61D7F","ls":"110100023100","name":"天通苑南","en":"tian tong yuan nan"}},{"type":"Feature","geometry":{"type":"Point","coordinates":[116.4064947494692,40.073810737740516]},"properties":{"pname":"地铁5号线","pshort":"5号线","color":"A61D7F","ls":"110100023100","name":"天通苑","en":"tian tong yuan"}},{"type":"Feature","geometry":{"type":"Point","coordinates":[116.40662270349225,40.082256202783576]},"properties":{"pname":"地铁5号线","pshort":"5号线","color":"A61D7F","ls":"110100023100","name":"天通苑北","en":"tian tong yuan bei"}},{"type":"Feature","geometry":{"type":"Point","coordinates":[116.7413570409087,39.90142686327433]},"properties":{"pname":"地铁6号线","pshort":"6号线","color":"D0970A","ls":"110100023339","name":"潞城","en":"lu cheng"}},{"type":"Feature","geometry":{"type":"Point","coordinates":[116.7277894098496,39.90192994467827]},"properties":{"pname":"地铁6号线","pshort":"6号线","color":"D0970A","ls":"110100023339","name":"东夏园","en":"dong xia yuan"}},{"type":"Feature","geometry":{"type":"Point","coordinates":[116.71179485245568,39.90199548316711]},"properties":{"pname":"地铁6号线","pshort":"6号线","color":"D0970A","ls":"110100023339","name":"郝家府","en":"hao jia fu"}},{"type":"Feature","geometry":{"type":"Point","coordinates":[116.70104970120008,39.90208431371526]},"properties":{"pname":"地铁6号线","pshort":"6号线","color":"D0970A","ls":"110100023339","name":"北运河东","en":"bei yun he dong"}},{"type":"Feature","geometry":{"type":"Point","coordinates":[116.68240140318547,39.90187311529692]},"properties":{"pname":"地铁6号线","pshort":"6号线","color":"D0970A","ls":"110100023339","name":"北运河西","en":"bei yun he xi"}},{"type":"Feature","geometry":{"type":"Point","coordinates":[116.65524873316866,39.91686182815462]},"properties":{"pname":"地铁6号线","pshort":"6号线","color":"D0970A","ls":"110100023339","name":"通州北关","en":"tong zhou bei guan"}},{"type":"Feature","geometry":{"type":"Point","coordinates":[116.63348497331964,39.92573549014862]},"properties":{"pname":"地铁6号线","pshort":"6号线","color":"D0970A","ls":"110100023339","name":"物资学院路","en":"wu zi xue yuan lu"}},{"type":"Feature","geometry":{"type":"Point","coordinates":[116.6097794731071,39.92343437358805]},"properties":{"pname":"地铁6号线","pshort":"6号线","color":"D0970A","ls":"110100023339","name":"草房","en":"cao fang"}},{"type":"Feature","geometry":{"type":"Point","coordinates":[116.59393515616318,39.924656318207916]},"properties":{"pname":"地铁6号线","pshort":"6号线","color":"D0970A","ls":"110100023339","name":"常营","en":"chang ying"}},{"type":"Feature","geometry":{"type":"Point","coordinates":[116.57246631444603,39.92314773032749]},"properties":{"pname":"地铁6号线","pshort":"6号线","color":"D0970A","ls":"110100023339","name":"黄渠","en":"huang qu"}},{"type":"Feature","geometry":{"type":"Point","coordinates":[116.55813763137756,39.922947385931586]},"properties":{"pname":"地铁6号线","pshort":"6号线","color":"D0970A","ls":"110100023339","name":"褡裢坡","en":"da lian po"}},{"type":"Feature","geometry":{"type":"Point","coordinates":[116.51146397741894,39.92198023219515]},"properties":{"pname":"地铁6号线","pshort":"6号线","color":"D0970A","ls":"110100023339","name":"青年路","en":"qing nian lu"}},{"type":"Feature","geometry":{"type":"Point","coordinates":[116.4960215739548,39.92184220534778]},"properties":{"pname":"地铁6号线","pshort":"6号线","color":"D0970A","ls":"110100023339","name":"十里堡","en":"shi li bao"}},{"type":"Feature","geometry":{"type":"Point","coordinates":[116.47200329779278,39.92225323655257]},"properties":{"pname":"地铁6号线","pshort":"6号线","color":"D0970A","ls":"110100023339","name":"金台路","en":"jin tai lu"}},{"type":"Feature","geometry":{"type":"Point","coordinates":[116.45545379348474,39.92199352579372]},"properties":{"pname":"地铁6号线","pshort":"6号线","color":"D0970A","ls":"110100023339","name":"呼家楼","en":"hu jia lou"}},{"type":"Feature","geometry":{"type":"Point","coordinates":[116.44546634928545,39.92169015582136]},"properties":{"pname":"地铁6号线","pshort":"6号线","color":"D0970A","ls":"110100023339","name":"东大桥","en":"dong da qiao"}},{"type":"Feature","geometry":{"type":"Point","coordinates":[116.39794512767475,39.93244295437595]},"properties":{"pname":"地铁6号线","pshort":"6号线","color":"D0970A","ls":"110100023339","name":"南锣鼓巷","en":"nan luo gu xiang"}},{"type":"Feature","geometry":{"type":"Point","coordinates":[116.38059317251118,39.93185210367323]},"properties":{"pname":"地铁6号线","pshort":"6号线","color":"D0970A","ls":"110100023339","name":"北海北","en":"bei hai bei"}},{"type":"Feature","geometry":{"type":"Point","coordinates":[116.33792254450069,39.93113477878211]},"properties":{"pname":"地铁6号线","pshort":"6号线","color":"D0970A","ls":"110100023339","name":"车公庄西","en":"che gong zhuang xi"}},{"type":"Feature","geometry":{"type":"Point","coordinates":[116.31956237065256,39.9317257949578]},"properties":{"pname":"地铁6号线","pshort":"6号线","color":"D0970A","ls":"110100023339","name":"白石桥南","en":"bai shi qiao nan"}},{"type":"Feature","geometry":{"type":"Point","coordinates":[116.3045973773195,39.931070952459]},"properties":{"pname":"地铁6号线","pshort":"6号线","color":"D0970A","ls":"110100023339","name":"花园桥","en":"hua yuan qiao"}},{"type":"Feature","geometry":{"type":"Point","coordinates":[116.28940813845361,39.93202245510378]},"properties":{"pname":"地铁6号线","pshort":"6号线","color":"D0970A","ls":"110100023339","name":"慈寿寺","en":"ci shou si"}},{"type":"Feature","geometry":{"type":"Point","coordinates":[116.2704938393025,39.9313590192798]},"properties":{"pname":"地铁6号线","pshort":"6号线","color":"D0970A","ls":"110100023339","name":"海淀五路居","en":"hai dian wu lu ju"}},{"type":"Feature","geometry":{"type":"Point","coordinates":[116.24688088255714,39.928286346374406]},"properties":{"pname":"地铁6号线","pshort":"6号线","color":"D0970A","ls":"110100023339","name":"田村","en":"tian cun"}},{"type":"Feature","geometry":{"type":"Point","coordinates":[116.2212312876673,39.93119073361021]},"properties":{"pname":"地铁6号线","pshort":"6号线","color":"D0970A","ls":"110100023339","name":"廖公庄","en":"liao gong zhuang"}},{"type":"Feature","geometry":{"type":"Point","coordinates":[116.20082939546934,39.93234712986042]},"properties":{"pname":"地铁6号线","pshort":"6号线","color":"D0970A","ls":"110100023339","name":"西黄村","en":"xi huang cun"}},{"type":"Feature","geometry":{"type":"Point","coordinates":[116.18084983970246,39.926557928955255]},"properties":{"pname":"地铁6号线","pshort":"6号线","color":"D0970A","ls":"110100023339","name":"杨庄","en":"yang zhuang"}},{"type":"Feature","geometry":{"type":"Point","coordinates":[116.68952445045481,39.855560335403226]},"properties":{"pname":"地铁7号线","pshort":"7号线","color":"F9BE58","ls":"110100023054","name":"花庄","en":"HuaZhuang"}},{"type":"Feature","geometry":{"type":"Point","coordinates":[116.67839960693112,39.86201265658733]},"properties":{"pname":"地铁7号线","pshort":"7号线","color":"F9BE58","ls":"110100023054","name":"高楼金","en":"GaoLouJin"}},{"type":"Feature","geometry":{"type":"Point","coordinates":[116.66488987177996,39.86239948756372]},"properties":{"pname":"地铁7号线","pshort":"7号线","color":"F9BE58","ls":"110100023054","name":"群芳","en":"QunFang"}},{"type":"Feature","geometry":{"type":"Point","coordinates":[116.65151326978693,39.862400098369775]},"properties":{"pname":"地铁7号线","pshort":"7号线","color":"F9BE58","ls":"110100023054","name":"万盛东","en":"WanShengDong"}},{"type":"Feature","geometry":{"type":"Point","coordinates":[116.62635030970311,39.86227436070729]},"properties":{"pname":"地铁7号线","pshort":"7号线","color":"F9BE58","ls":"110100023054","name":"万盛西","en":"WanShengXi"}},{"type":"Feature","geometry":{"type":"Point","coordinates":[116.59334026754061,39.857688409313425]},"properties":{"pname":"地铁7号线","pshort":"7号线","color":"F9BE58","ls":"110100023054","name":"黑庄户","en":"HeiZhuangHu"}},{"type":"Feature","geometry":{"type":"Point","coordinates":[116.56402194863664,39.855435031243815]},"properties":{"pname":"地铁7号线","pshort":"7号线","color":"F9BE58","ls":"110100023054","name":"郎辛庄","en":"Lang XinZhuang"}},{"type":"Feature","geometry":{"type":"Point","coordinates":[116.54792115247152,39.847889548068956]},"properties":{"pname":"地铁7号线","pshort":"7号线","color":"F9BE58","ls":"110100023054","name":"黄厂","en":"HuangChang"}},{"type":"Feature","geometry":{"type":"Point","coordinates":[116.53136008711866,39.85435906893071]},"properties":{"pname":"地铁7号线","pshort":"7号线","color":"F9BE58","ls":"110100023054","name":"焦化厂","en":"jiao hua chang"}},{"type":"Feature","geometry":{"type":"Point","coordinates":[116.52091313043005,39.85853350223648]},"properties":{"pname":"地铁7号线","pshort":"7号线","color":"F9BE58","ls":"110100023054","name":"双合","en":"shuang he"}},{"type":"Feature","geometry":{"type":"Point","coordinates":[116.5058426203475,39.85952654801128]},"properties":{"pname":"地铁7号线","pshort":"7号线","color":"F9BE58","ls":"110100023054","name":"垡头","en":"fa tou"}},{"type":"Feature","geometry":{"type":"Point","coordinates":[116.49404308845456,39.86526794810833]},"properties":{"pname":"地铁7号线","pshort":"7号线","color":"F9BE58","ls":"110100023054","name":"欢乐谷景区","en":"huan le gu jing qu"}},{"type":"Feature","geometry":{"type":"Point","coordinates":[116.4950629588615,39.873343565378974]},"properties":{"pname":"地铁7号线","pshort":"7号线","color":"F9BE58","ls":"110100023054","name":"南楼梓庄","en":"nan lou zi zhuang"}},{"type":"Feature","geometry":{"type":"Point","coordinates":[116.4974253562242,39.88614099107379]},"properties":{"pname":"地铁7号线","pshort":"7号线","color":"F9BE58","ls":"110100023054","name":"化工","en":"hua gong"}},{"type":"Feature","geometry":{"type":"Point","coordinates":[116.49173209300214,39.891284769419606]},"properties":{"pname":"地铁7号线","pshort":"7号线","color":"F9BE58","ls":"110100023054","name":"百子湾","en":"bai zi wan"}},{"type":"Feature","geometry":{"type":"Point","coordinates":[116.48186219167695,39.891908919321345]},"properties":{"pname":"地铁7号线","pshort":"7号线","color":"F9BE58","ls":"110100023054","name":"大郊亭","en":"da jiao ting"}},{"type":"Feature","geometry":{"type":"Point","coordinates":[116.4725891280985,39.89192213782581]},"properties":{"pname":"地铁7号线","pshort":"7号线","color":"F9BE58","ls":"110100023054","name":"九龙山","en":"jiu long shan"}},{"type":"Feature","geometry":{"type":"Point","coordinates":[116.45567419564517,39.89217032123264]},"properties":{"pname":"地铁7号线","pshort":"7号线","color":"F9BE58","ls":"110100023054","name":"双井","en":"ShuangJing"}},{"type":"Feature","geometry":{"type":"Point","coordinates":[116.44280480214056,39.89228063451796]},"properties":{"pname":"地铁7号线","pshort":"7号线","color":"F9BE58","ls":"110100023054","name":"广渠门外","en":"guang qu men wai"}},{"type":"Feature","geometry":{"type":"Point","coordinates":[116.42765499654149,39.89228375470998]},"properties":{"pname":"地铁7号线","pshort":"7号线","color":"F9BE58","ls":"110100023054","name":"广渠门内","en":"guang qu men nei"}},{"type":"Feature","geometry":{"type":"Point","coordinates":[116.4022223220916,39.89132172682565]},"properties":{"pname":"地铁7号线","pshort":"7号线","color":"F9BE58","ls":"110100023054","name":"桥湾","en":"qiao wan"}},{"type":"Feature","geometry":{"type":"Point","coordinates":[116.39186477921682,39.88986625835898]},"properties":{"pname":"地铁7号线","pshort":"7号线","color":"F9BE58","ls":"110100023054","name":"珠市口","en":"zhu shi kou"}},{"type":"Feature","geometry":{"type":"Point","coordinates":[116.37836818148365,39.88809508226023]},"properties":{"pname":"地铁7号线","pshort":"7号线","color":"F9BE58","ls":"110100023054","name":"虎坊桥","en":"hu fang qiao"}},{"type":"Feature","geometry":{"type":"Point","coordinates":[116.35205435743124,39.88806318759349]},"properties":{"pname":"地铁7号线","pshort":"7号线","color":"F9BE58","ls":"110100023054","name":"广安门内","en":"guang an men nei"}},{"type":"Feature","geometry":{"type":"Point","coordinates":[116.33031827273173,39.88856910162982]},"properties":{"pname":"地铁7号线","pshort":"7号线","color":"F9BE58","ls":"110100023054","name":"达官营","en":"da guan ying"}},{"type":"Feature","geometry":{"type":"Point","coordinates":[116.32163610399012,39.88865572657111]},"properties":{"pname":"地铁7号线","pshort":"7号线","color":"F9BE58","ls":"110100023054","name":"湾子","en":"wan zi"}},{"type":"Feature","geometry":{"type":"Point","coordinates":[116.315115045862,39.89341976986752]},"properties":{"pname":"地铁7号线","pshort":"7号线","color":"F9BE58","ls":"110100023054","name":"北京西站","en":"bei jing xi zhan"}},{"type":"Feature","geometry":{"type":"Point","coordinates":[116.40455766785577,39.922300455035526]},"properties":{"pname":"地铁8号线","pshort":"8号线","color":"018237","ls":"110100023114","name":"中国美术馆","en":"zhong guo mei shu guan"}},{"type":"Feature","geometry":{"type":"Point","coordinates":[116.38997490121045,39.93618120321069]},"properties":{"pname":"地铁8号线","pshort":"8号线","color":"018237","ls":"110100023114","name":"什刹海","en":"shi cha hai"}},{"type":"Feature","geometry":{"type":"Point","coordinates":[116.38889905957721,39.95582502135248]},"properties":{"pname":"地铁8号线","pshort":"8号线","color":"018237","ls":"110100023114","name":"安德里北街","en":"an de li bei jie"}},{"type":"Feature","geometry":{"type":"Point","coordinates":[116.38840794229462,39.96710486387252]},"properties":{"pname":"地铁8号线","pshort":"8号线","color":"018237","ls":"110100023114","name":"安华桥","en":"an hua qiao"}},{"type":"Feature","geometry":{"type":"Point","coordinates":[116.38794517900767,39.975550807427034]},"properties":{"pname":"地铁8号线","pshort":"8号线","color":"018237","ls":"110100023114","name":"北土城","en":"bei tu cheng"}},{"type":"Feature","geometry":{"type":"Point","coordinates":[116.38751035008208,39.98443471893697]},"properties":{"pname":"地铁8号线","pshort":"8号线","color":"018237","ls":"110100023114","name":"奥体中心","en":"ao ti zhong xin"}},{"type":"Feature","geometry":{"type":"Point","coordinates":[116.38550878902178,40.000805376622715]},"properties":{"pname":"地铁8号线","pshort":"8号线","color":"018237","ls":"110100023114","name":"奥林匹克公园","en":"ao lin pi ke gong yuan"}},{"type":"Feature","geometry":{"type":"Point","coordinates":[116.38634910898159,40.0087194481047]},"properties":{"pname":"地铁8号线","pshort":"8号线","color":"018237","ls":"110100023114","name":"森林公园南门","en":"sen lin gong yuan nan men"}},{"type":"Feature","geometry":{"type":"Point","coordinates":[116.36676939997996,40.02052305647694]},"properties":{"pname":"地铁8号线","pshort":"8号线","color":"018237","ls":"110100023114","name":"林萃桥","en":"lin cui qiao"}},{"type":"Feature","geometry":{"type":"Point","coordinates":[116.3483841822204,40.03637319615163]},"properties":{"pname":"地铁8号线","pshort":"8号线","color":"018237","ls":"110100023114","name":"永泰庄","en":"yong tai zhuang"}},{"type":"Feature","geometry":{"type":"Point","coordinates":[116.34545331319042,40.045522937536184]},"properties":{"pname":"地铁8号线","pshort":"8号线","color":"018237","ls":"110100023114","name":"西小口","en":"xi xiao kou"}},{"type":"Feature","geometry":{"type":"Point","coordinates":[116.34114513661825,40.058696079728186]},"properties":{"pname":"地铁8号线","pshort":"8号线","color":"018237","ls":"110100023114","name":"育新","en":"yu xin"}},{"type":"Feature","geometry":{"type":"Point","coordinates":[116.35407410002125,40.07049053762019]},"properties":{"pname":"地铁8号线","pshort":"8号线","color":"018237","ls":"110100023114","name":"霍营","en":"huo ying"}},{"type":"Feature","geometry":{"type":"Point","coordinates":[116.35680654450469,40.079803483946534]},"properties":{"pname":"地铁8号线","pshort":"8号线","color":"018237","ls":"110100023114","name":"回龙观东大街","en":"hui long guan dong da jie"}},{"type":"Feature","geometry":{"type":"Point","coordinates":[116.34423141430611,40.08925644557944]},"properties":{"pname":"地铁8号线","pshort":"8号线","color":"018237","ls":"110100023114","name":"平西府","en":"ping xi fu"}},{"type":"Feature","geometry":{"type":"Point","coordinates":[116.32085193724744,40.08655692183602]},"properties":{"pname":"地铁8号线","pshort":"8号线","color":"018237","ls":"110100023114","name":"育知路","en":"yu zhi lu"}},{"type":"Feature","geometry":{"type":"Point","coordinates":[116.30758471974563,40.103014107001755]},"properties":{"pname":"地铁8号线","pshort":"8号线","color":"018237","ls":"110100023114","name":"朱辛庄","en":"zhu xin zhuang"}},{"type":"Feature","geometry":{"type":"Point","coordinates":[116.39247367810147,39.88051943877403]},"properties":{"pname":"地铁8号线南段","pshort":"8号线南段","color":"018237","ls":"900000040279","name":"天桥","en":"tian qiao"}},{"type":"Feature","geometry":{"type":"Point","coordinates":[116.39313222831048,39.86603490815065]},"properties":{"pname":"地铁8号线南段","pshort":"8号线南段","color":"018237","ls":"900000040279","name":"永定门外","en":"yong ding men wai"}},{"type":"Feature","geometry":{"type":"Point","coordinates":[116.39360307223042,39.857862170622674]},"properties":{"pname":"地铁8号线南段","pshort":"8号线南段","color":"018237","ls":"900000040279","name":"木樨园","en":"mu xi yuan"}},{"type":"Feature","geometry":{"type":"Point","coordinates":[116.39406583947452,39.85040542559046]},"properties":{"pname":"地铁8号线南段","pshort":"8号线南段","color":"018237","ls":"900000040279","name":"海户屯","en":"hai hu tun"}},{"type":"Feature","geometry":{"type":"Point","coordinates":[116.3948114895927,39.83531609453288]},"properties":{"pname":"地铁8号线南段","pshort":"8号线南段","color":"018237","ls":"900000040279","name":"大红门南","en":"da hong men nan"}},{"type":"Feature","geometry":{"type":"Point","coordinates":[116.39584194643459,39.81344028839823]},"properties":{"pname":"地铁8号线南段","pshort":"8号线南段","color":"018237","ls":"900000040279","name":"和义","en":"he yi"}},{"type":"Feature","geometry":{"type":"Point","coordinates":[116.40319655419951,39.8036760653218]},"properties":{"pname":"地铁8号线南段","pshort":"8号线南段","color":"018237","ls":"900000040279","name":"东高地","en":"dong gao di"}},{"type":"Feature","geometry":{"type":"Point","coordinates":[116.41240072628592,39.79789167346016]},"properties":{"pname":"地铁8号线南段","pshort":"8号线南段","color":"018237","ls":"900000040279","name":"火箭万源","en":"huo jian wan yuan"}},{"type":"Feature","geometry":{"type":"Point","coordinates":[116.41768266836444,39.78365484260091]},"properties":{"pname":"地铁8号线南段","pshort":"8号线南段","color":"018237","ls":"900000040279","name":"五福堂","en":"wu fu tang"}},{"type":"Feature","geometry":{"type":"Point","coordinates":[116.43542357250168,39.771337988970345]},"properties":{"pname":"地铁8号线南段","pshort":"8号线南段","color":"018237","ls":"900000040279","name":"德茂","en":"de mao"}},{"type":"Feature","geometry":{"type":"Point","coordinates":[116.44278155164184,39.75933601644892]},"properties":{"pname":"地铁8号线南段","pshort":"8号线南段","color":"018237","ls":"900000040279","name":"瀛海","en":"ying hai"}},{"type":"Feature","geometry":{"type":"Point","coordinates":[116.29583445646159,39.81307349113868]},"properties":{"pname":"地铁9号线","pshort":"9号线","color":"86B81C","ls":"110100023116","name":"郭公庄","en":"guo gong zhuang"}},{"type":"Feature","geometry":{"type":"Point","coordinates":[116.29112791825322,39.823990636862646]},"properties":{"pname":"地铁9号线","pshort":"9号线","color":"86B81C","ls":"110100023116","name":"丰台科技园","en":"feng tai ke ji yuan"}},{"type":"Feature","geometry":{"type":"Point","coordinates":[116.2913826139537,39.83123678524685]},"properties":{"pname":"地铁9号线","pshort":"9号线","color":"86B81C","ls":"110100023116","name":"科怡路","en":"ke yi lu"}},{"type":"Feature","geometry":{"type":"Point","coordinates":[116.29069870390279,39.839201236425936]},"properties":{"pname":"地铁9号线","pshort":"9号线","color":"86B81C","ls":"110100023116","name":"丰台南路","en":"feng tai nan lu"}},{"type":"Feature","geometry":{"type":"Point","coordinates":[116.28781025675855,39.85387129370313]},"properties":{"pname":"地铁9号线","pshort":"9号线","color":"86B81C","ls":"110100023116","name":"丰台东大街","en":"feng tai dong da jie"}},{"type":"Feature","geometry":{"type":"Point","coordinates":[116.28824317016712,39.86553207065622]},"properties":{"pname":"地铁9号线","pshort":"9号线","color":"86B81C","ls":"110100023116","name":"七里庄","en":"qi li zhuang"}},{"type":"Feature","geometry":{"type":"Point","coordinates":[116.29674365836271,39.87898507933917]},"properties":{"pname":"地铁9号线","pshort":"9号线","color":"86B81C","ls":"110100023116","name":"六里桥","en":"liu li qiao"}},{"type":"Feature","geometry":{"type":"Point","coordinates":[116.30905299225688,39.88561116261092]},"properties":{"pname":"地铁9号线","pshort":"9号线","color":"86B81C","ls":"110100023116","name":"六里桥东","en":"liu li qiao dong"}},{"type":"Feature","geometry":{"type":"Point","coordinates":[116.31964534066933,39.92252201399185]},"properties":{"pname":"地铁9号线","pshort":"9号线","color":"86B81C","ls":"110100023116","name":"白堆子","en":"bai dui zi"}},{"type":"Feature","geometry":{"type":"Point","coordinates":[116.28766562887651,39.97293417723997]},"properties":{"pname":"地铁10号线","pshort":"10号线","color":"019AC3","ls":"110100023282","name":"巴沟","en":"ba gou"}},{"type":"Feature","geometry":{"type":"Point","coordinates":[116.30024935051492,39.974378486512684]},"properties":{"pname":"地铁10号线","pshort":"10号线","color":"019AC3","ls":"110100023282","name":"苏州街","en":"su zhou jie"}},{"type":"Feature","geometry":{"type":"Point","coordinates":[116.32257910366323,39.975030346613956]},"properties":{"pname":"地铁10号线","pshort":"10号线","color":"019AC3","ls":"110100023282","name":"知春里","en":"zhi chun li"}},{"type":"Feature","geometry":{"type":"Point","coordinates":[116.33380436063884,39.97515083920601]},"properties":{"pname":"地铁10号线","pshort":"10号线","color":"019AC3","ls":"110100023282","name":"知春路","en":"zhi chun lu"}},{"type":"Feature","geometry":{"type":"Point","coordinates":[116.34791095980663,39.975197745241026]},"properties":{"pname":"地铁10号线","pshort":"10号线","color":"019AC3","ls":"110100023282","name":"西土城","en":"xi tu cheng"}},{"type":"Feature","geometry":{"type":"Point","coordinates":[116.36362641645987,39.975226368232356]},"properties":{"pname":"地铁10号线","pshort":"10号线","color":"019AC3","ls":"110100023282","name":"牡丹园","en":"mu dan yuan"}},{"type":"Feature","geometry":{"type":"Point","coordinates":[116.37511802333532,39.97533180766429]},"properties":{"pname":"地铁10号线","pshort":"10号线","color":"019AC3","ls":"110100023282","name":"健德门","en":"jian de men"}},{"type":"Feature","geometry":{"type":"Point","coordinates":[116.39970200166867,39.9755984361305]},"properties":{"pname":"地铁10号线","pshort":"10号线","color":"019AC3","ls":"110100023282","name":"安贞门","en":"an zhen men"}},{"type":"Feature","geometry":{"type":"Point","coordinates":[116.42968445133327,39.976245652178804]},"properties":{"pname":"地铁10号线","pshort":"10号线","color":"019AC3","ls":"110100023282","name":"芍药居","en":"shao yao ju"}},{"type":"Feature","geometry":{"type":"Point","coordinates":[116.44126228643452,39.97130470185416]},"properties":{"pname":"地铁10号线","pshort":"10号线","color":"019AC3","ls":"110100023282","name":"太阳宫","en":"tai yang gong"}},{"type":"Feature","geometry":{"type":"Point","coordinates":[116.45081510294983,39.96015308723973]},"properties":{"pname":"地铁10号线","pshort":"10号线","color":"019AC3","ls":"110100023282","name":"三元桥","en":"san yuan qiao"}},{"type":"Feature","geometry":{"type":"Point","coordinates":[116.4556269915585,39.94807085764461]},"properties":{"pname":"地铁10号线","pshort":"10号线","color":"019AC3","ls":"110100023282","name":"亮马桥","en":"liang ma qiao"}},{"type":"Feature","geometry":{"type":"Point","coordinates":[116.45555781420978,39.94000002484406]},"properties":{"pname":"地铁10号线","pshort":"10号线","color":"019AC3","ls":"110100023282","name":"农业展览馆","en":"nong ye zhan lan guan"}},{"type":"Feature","geometry":{"type":"Point","coordinates":[116.4556410147093,39.9324035147208]},"properties":{"pname":"地铁10号线","pshort":"10号线","color":"019AC3","ls":"110100023282","name":"团结湖","en":"tuan jie hu"}},{"type":"Feature","geometry":{"type":"Point","coordinates":[116.45557997752763,39.91549507798343]},"properties":{"pname":"地铁10号线","pshort":"10号线","color":"019AC3","ls":"110100023282","name":"金台夕照","en":"jin tai xi zhao"}},{"type":"Feature","geometry":{"type":"Point","coordinates":[116.45516488804915,39.883044628792625]},"properties":{"pname":"地铁10号线","pshort":"10号线","color":"019AC3","ls":"110100023282","name":"劲松","en":"jin song"}},{"type":"Feature","geometry":{"type":"Point","coordinates":[116.45476588819554,39.87404420120922]},"properties":{"pname":"地铁10号线","pshort":"10号线","color":"019AC3","ls":"110100023282","name":"潘家园","en":"pan jia yuan"}},{"type":"Feature","geometry":{"type":"Point","coordinates":[116.45181583203212,39.86506835372111]},"properties":{"pname":"地铁10号线","pshort":"10号线","color":"019AC3","ls":"110100023282","name":"十里河","en":"shi li he"}},{"type":"Feature","geometry":{"type":"Point","coordinates":[116.44780009539394,39.850871042719554]},"properties":{"pname":"地铁10号线","pshort":"10号线","color":"019AC3","ls":"110100023282","name":"分钟寺","en":"fen zhong si"}},{"type":"Feature","geometry":{"type":"Point","coordinates":[116.44134054990454,39.84450664546436]},"properties":{"pname":"地铁10号线","pshort":"10号线","color":"019AC3","ls":"110100023282","name":"成寿寺","en":"cheng shou si"}},{"type":"Feature","geometry":{"type":"Point","coordinates":[116.4078685172545,39.84450484018552]},"properties":{"pname":"地铁10号线","pshort":"10号线","color":"019AC3","ls":"110100023282","name":"石榴庄","en":"shi liu zhuang"}},{"type":"Feature","geometry":{"type":"Point","coordinates":[116.39292012453745,39.843984255674364]},"properties":{"pname":"地铁10号线","pshort":"10号线","color":"019AC3","ls":"110100023282","name":"大红门","en":"da hong men"}},{"type":"Feature","geometry":{"type":"Point","coordinates":[116.3794256306975,39.84374545795798]},"properties":{"pname":"地铁10号线","pshort":"10号线","color":"019AC3","ls":"110100023282","name":"角门东","en":"jiao men dong"}},{"type":"Feature","geometry":{"type":"Point","coordinates":[116.34522226408929,39.844528502707846]},"properties":{"pname":"地铁10号线","pshort":"10号线","color":"019AC3","ls":"110100023282","name":"草桥","en":"CaoQiao"}},{"type":"Feature","geometry":{"type":"Point","coordinates":[116.32725700300642,39.84312642184114]},"properties":{"pname":"地铁10号线","pshort":"10号线","color":"019AC3","ls":"110100023282","name":"纪家庙","en":"ji jia miao"}},{"type":"Feature","geometry":{"type":"Point","coordinates":[116.3141075304474,39.84318130045054]},"properties":{"pname":"地铁10号线","pshort":"10号线","color":"019AC3","ls":"110100023282","name":"首经贸","en":"shou jing mao"}},{"type":"Feature","geometry":{"type":"Point","coordinates":[116.29847636334426,39.84838402250082]},"properties":{"pname":"地铁10号线","pshort":"10号线","color":"019AC3","ls":"110100023282","name":"丰台站","en":"feng tai zhan"}},{"type":"Feature","geometry":{"type":"Point","coordinates":[116.29810891251466,39.857354085953794]},"properties":{"pname":"地铁10号线","pshort":"10号线","color":"019AC3","ls":"110100023282","name":"泥洼","en":"ni wa"}},{"type":"Feature","geometry":{"type":"Point","coordinates":[116.29775453472455,39.86551519637687]},"properties":{"pname":"地铁10号线","pshort":"10号线","color":"019AC3","ls":"110100023282","name":"西局","en":"xi ju"}},{"type":"Feature","geometry":{"type":"Point","coordinates":[116.30426634474415,39.896599987238]},"properties":{"pname":"地铁10号线","pshort":"10号线","color":"019AC3","ls":"110100023282","name":"莲花桥","en":"lian hua qiao"}},{"type":"Feature","geometry":{"type":"Point","coordinates":[116.29200228967473,39.9222322168179]},"properties":{"pname":"地铁10号线","pshort":"10号线","color":"019AC3","ls":"110100023282","name":"西钓鱼台","en":"xi diao yu tai"}},{"type":"Feature","geometry":{"type":"Point","coordinates":[116.2877597702434,39.94667908926356]},"properties":{"pname":"地铁10号线","pshort":"10号线","color":"019AC3","ls":"110100023282","name":"车道沟","en":"che dao gou"}},{"type":"Feature","geometry":{"type":"Point","coordinates":[116.28819480661097,39.95728209330207]},"properties":{"pname":"地铁10号线","pshort":"10号线","color":"019AC3","ls":"110100023282","name":"长春桥","en":"chang chun qiao"}},{"type":"Feature","geometry":{"type":"Point","coordinates":[116.28300404297504,39.9646993502474]},"properties":{"pname":"地铁10号线","pshort":"10号线","color":"019AC3","ls":"110100023282","name":"火器营","en":"huo qi ying"}},{"type":"Feature","geometry":{"type":"Point","coordinates":[116.33897285753766,39.9652774524838]},"properties":{"pname":"地铁13号线","pshort":"13号线","color":"FCD600","ls":"110100033066","name":"大钟寺","en":"da zhong si"}},{"type":"Feature","geometry":{"type":"Point","coordinates":[116.3315893653444,39.991572403656725]},"properties":{"pname":"地铁13号线","pshort":"13号线","color":"FCD600","ls":"110100033066","name":"五道口","en":"wu dao kou"}},{"type":"Feature","geometry":{"type":"Point","coordinates":[116.31407493796364,40.03171684577352]},"properties":{"pname":"地铁13号线","pshort":"13号线","color":"FCD600","ls":"110100033066","name":"上地","en":"shang di"}},{"type":"Feature","geometry":{"type":"Point","coordinates":[116.30868940019153,40.03980918394987]},"properties":{"pname":"地铁13号线","pshort":"13号线","color":"FCD600","ls":"110100033066","name":"清河","en":"QingHe"}},{"type":"Feature","geometry":{"type":"Point","coordinates":[116.30020272557832,40.051766996295434]},"properties":{"pname":"地铁13号线","pshort":"13号线","color":"FCD600","ls":"110100033066","name":"西二旗","en":"xi er qi"}},{"type":"Feature","geometry":{"type":"Point","coordinates":[116.31330782783935,40.06959115057898]},"properties":{"pname":"地铁13号线","pshort":"13号线","color":"FCD600","ls":"110100033066","name":"龙泽","en":"long ze"}},{"type":"Feature","geometry":{"type":"Point","coordinates":[116.32995725583702,40.06947762057058]},"properties":{"pname":"地铁13号线","pshort":"13号线","color":"FCD600","ls":"110100033066","name":"回龙观","en":"hui long guan"}},{"type":"Feature","geometry":{"type":"Point","coordinates":[116.4282778905123,40.041602045453125]},"properties":{"pname":"地铁13号线","pshort":"13号线","color":"FCD600","ls":"110100033066","name":"北苑","en":"bei yuan"}},{"type":"Feature","geometry":{"type":"Point","coordinates":[116.44367986227745,39.99435397201384]},"properties":{"pname":"地铁13号线","pshort":"13号线","color":"FCD600","ls":"110100033066","name":"望京西","en":"wang jing xi"}},{"type":"Feature","geometry":{"type":"Point","coordinates":[116.42552642760974,39.96694237013813]},"properties":{"pname":"地铁13号线","pshort":"13号线","color":"FCD600","ls":"110100033066","name":"光熙门","en":"guang xi men"}},{"type":"Feature","geometry":{"type":"Point","coordinates":[116.42649608872881,39.956763789693376]},"properties":{"pname":"地铁13号线","pshort":"13号线","color":"FCD600","ls":"110100033066","name":"柳芳","en":"liu fang"}},{"type":"Feature","geometry":{"type":"Point","coordinates":[116.47207047529172,40.02585309778633]},"properties":{"pname":"地铁14号线东段","pshort":"14号线东段","color":"E4A8A3","ls":"900000028907","name":"善各庄","en":"shan ge zhuang"}},{"type":"Feature","geometry":{"type":"Point","coordinates":[116.4608335031305,40.019252889728286]},"properties":{"pname":"地铁14号线东段","pshort":"14号线东段","color":"E4A8A3","ls":"900000028907","name":"来广营","en":"lai guang ying"}},{"type":"Feature","geometry":{"type":"Point","coordinates":[116.46125406035418,40.00933634714887]},"properties":{"pname":"地铁14号线东段","pshort":"14号线东段","color":"E4A8A3","ls":"900000028907","name":"东湖渠","en":"dong hu qu"}},{"type":"Feature","geometry":{"type":"Point","coordinates":[116.46325888457345,39.997192739101244]},"properties":{"pname":"地铁14号线东段","pshort":"14号线东段","color":"E4A8A3","ls":"900000028907","name":"望京","en":"wang jing"}},{"type":"Feature","geometry":{"type":"Point","coordinates":[116.4655982592007,39.99037684436926]},"properties":{"pname":"地铁14号线东段","pshort":"14号线东段","color":"E4A8A3","ls":"900000028907","name":"阜通","en":"fu tong"}},{"type":"Feature","geometry":{"type":"Point","coordinates":[116.47552690616556,39.9833383526346]},"properties":{"pname":"地铁14号线东段","pshort":"14号线东段","color":"E4A8A3","ls":"900000028907","name":"望京南","en":"wang jing nan"}},{"type":"Feature","geometry":{"type":"Point","coordinates":[116.4834191572957,39.969836154679314]},"properties":{"pname":"地铁14号线东段","pshort":"14号线东段","color":"E4A8A3","ls":"900000028907","name":"将台","en":"jiang tai"}},{"type":"Feature","geometry":{"type":"Point","coordinates":[116.47983062157518,39.9570924113302]},"properties":{"pname":"地铁14号线东段","pshort":"14号线东段","color":"E4A8A3","ls":"900000028907","name":"东风北桥","en":"dong feng bei qiao"}},{"type":"Feature","geometry":{"type":"Point","coordinates":[116.46882190331725,39.94282000461578]},"properties":{"pname":"地铁14号线东段","pshort":"14号线东段","color":"E4A8A3","ls":"900000028907","name":"枣营","en":"zao ying"}},{"type":"Feature","geometry":{"type":"Point","coordinates":[116.4721786522985,39.932189299149414]},"properties":{"pname":"地铁14号线东段","pshort":"14号线东段","color":"E4A8A3","ls":"900000028907","name":"朝阳公园","en":"zhao yang gong yuan"}},{"type":"Feature","geometry":{"type":"Point","coordinates":[116.47119734346565,39.883971794627136]},"properties":{"pname":"地铁14号线东段","pshort":"14号线东段","color":"E4A8A3","ls":"900000028907","name":"平乐园","en":"ping le yuan"}},{"type":"Feature","geometry":{"type":"Point","coordinates":[116.47121062261841,39.87414231992783]},"properties":{"pname":"地铁14号线东段","pshort":"14号线东段","color":"E4A8A3","ls":"900000028907","name":"北工大西门","en":"bei gong da xi men"}},{"type":"Feature","geometry":{"type":"Point","coordinates":[116.43403617786771,39.864488186775006]},"properties":{"pname":"地铁14号线东段","pshort":"14号线东段","color":"E4A8A3","ls":"900000028907","name":"方庄","en":"fang zhuang"}},{"type":"Feature","geometry":{"type":"Point","coordinates":[116.40478916110575,39.863853214532575]},"properties":{"pname":"地铁14号线东段","pshort":"14号线东段","color":"E4A8A3","ls":"900000028907","name":"景泰","en":"jing tai"}},{"type":"Feature","geometry":{"type":"Point","coordinates":[116.27003253968579,39.86400446909528]},"properties":{"pname":"地铁14号线西段","pshort":"14号线西段","color":"E4A8A3","ls":"110100023068","name":"大井","en":"da jing"}},{"type":"Feature","geometry":{"type":"Point","coordinates":[116.24704298046098,39.86362735040419]},"properties":{"pname":"地铁14号线西段","pshort":"14号线西段","color":"E4A8A3","ls":"110100023068","name":"郭庄子","en":"guo zhuang zi"}},{"type":"Feature","geometry":{"type":"Point","coordinates":[116.23444631137677,39.85825254897833]},"properties":{"pname":"地铁14号线西段","pshort":"14号线西段","color":"E4A8A3","ls":"110100023068","name":"大瓦窑","en":"da wa yao"}},{"type":"Feature","geometry":{"type":"Point","coordinates":[116.19553642130748,39.860064950785464]},"properties":{"pname":"地铁14号线西段","pshort":"14号线西段","color":"E4A8A3","ls":"110100023068","name":"园博园","en":"yuan bo yuan"}},{"type":"Feature","geometry":{"type":"Point","coordinates":[116.18104816608808,39.85681158426114]},"properties":{"pname":"地铁14号线西段","pshort":"14号线西段","color":"E4A8A3","ls":"110100023068","name":"张郭庄","en":"zhang guo zhuang"}},{"type":"Feature","geometry":{"type":"Point","coordinates":[116.67875718961638,40.131416587338514]},"properties":{"pname":"地铁15号线","pshort":"15号线","color":"793E8C","ls":"110100023070","name":"俸伯","en":"feng bo"}},{"type":"Feature","geometry":{"type":"Point","coordinates":[116.6511255426111,40.128889650772905]},"properties":{"pname":"地铁15号线","pshort":"15号线","color":"793E8C","ls":"110100023070","name":"顺义","en":"shun yi"}},{"type":"Feature","geometry":{"type":"Point","coordinates":[116.63525741917007,40.12872291443044]},"properties":{"pname":"地铁15号线","pshort":"15号线","color":"793E8C","ls":"110100023070","name":"石门","en":"shi men"}},{"type":"Feature","geometry":{"type":"Point","coordinates":[116.60372032315335,40.12742667836509]},"properties":{"pname":"地铁15号线","pshort":"15号线","color":"793E8C","ls":"110100023070","name":"南法信","en":"nan fa xin"}},{"type":"Feature","geometry":{"type":"Point","coordinates":[116.55836487952604,40.11304391747693]},"properties":{"pname":"地铁15号线","pshort":"15号线","color":"793E8C","ls":"110100023070","name":"后沙峪","en":"hou sha yu"}},{"type":"Feature","geometry":{"type":"Point","coordinates":[116.55173583274347,40.08334300034644]},"properties":{"pname":"地铁15号线","pshort":"15号线","color":"793E8C","ls":"110100023070","name":"花梨坎","en":"hua li kan"}},{"type":"Feature","geometry":{"type":"Point","coordinates":[116.54926556193688,40.068932987978364]},"properties":{"pname":"地铁15号线","pshort":"15号线","color":"793E8C","ls":"110100023070","name":"国展","en":"guo zhan"}},{"type":"Feature","geometry":{"type":"Point","coordinates":[116.52878133546501,40.04396877269216]},"properties":{"pname":"地铁15号线","pshort":"15号线","color":"793E8C","ls":"110100023070","name":"孙河","en":"sun he"}},{"type":"Feature","geometry":{"type":"Point","coordinates":[116.49744821035645,40.03248680679077]},"properties":{"pname":"地铁15号线","pshort":"15号线","color":"793E8C","ls":"110100023070","name":"马泉营","en":"ma quan ying"}},{"type":"Feature","geometry":{"type":"Point","coordinates":[116.48689768127991,40.02093607446928]},"properties":{"pname":"地铁15号线","pshort":"15号线","color":"793E8C","ls":"110100023070","name":"崔各庄","en":"cui ge zhuang"}},{"type":"Feature","geometry":{"type":"Point","coordinates":[116.48101530238655,40.00191894383629]},"properties":{"pname":"地铁15号线","pshort":"15号线","color":"793E8C","ls":"110100023070","name":"望京东","en":"wang jing dong"}},{"type":"Feature","geometry":{"type":"Point","coordinates":[116.42470712837212,39.99973720016861]},"properties":{"pname":"地铁15号线","pshort":"15号线","color":"793E8C","ls":"110100023070","name":"关庄","en":"guan zhuang"}},{"type":"Feature","geometry":{"type":"Point","coordinates":[116.40158925880286,40.00121119928564]},"properties":{"pname":"地铁15号线","pshort":"15号线","color":"793E8C","ls":"110100023070","name":"安立路","en":"an li lu"}},{"type":"Feature","geometry":{"type":"Point","coordinates":[116.36192522023993,40.000116817671156]},"properties":{"pname":"地铁15号线","pshort":"15号线","color":"793E8C","ls":"110100023070","name":"北沙滩","en":"bei sha tan"}},{"type":"Feature","geometry":{"type":"Point","coordinates":[116.34648291978115,39.999608276318845]},"properties":{"pname":"地铁15号线","pshort":"15号线","color":"793E8C","ls":"110100023070","name":"六道口","en":"liu dao kou"}},{"type":"Feature","geometry":{"type":"Point","coordinates":[116.33337229064529,39.99934766640445]},"properties":{"pname":"地铁15号线","pshort":"15号线","color":"793E8C","ls":"110100023070","name":"清华东路西口","en":"qing hua dong lu xi kou"}},{"type":"Feature","geometry":{"type":"Point","coordinates":[116.12411234096548,40.06673732940941]},"properties":{"pname":"地铁16号线","pshort":"16号线","color":"6CB46B","ls":"900000062236","name":"北安河","en":"bei an he"}},{"type":"Feature","geometry":{"type":"Point","coordinates":[116.15511686022789,40.06717006290469]},"properties":{"pname":"地铁16号线","pshort":"16号线","color":"6CB46B","ls":"900000062236","name":"温阳路","en":"wen yang lu"}},{"type":"Feature","geometry":{"type":"Point","coordinates":[116.18197613929863,40.067639617824256]},"properties":{"pname":"地铁16号线","pshort":"16号线","color":"6CB46B","ls":"900000062236","name":"稻香湖路","en":"dao xiang hu lu"}},{"type":"Feature","geometry":{"type":"Point","coordinates":[116.20975057830898,40.06720298694545]},"properties":{"pname":"地铁16号线","pshort":"16号线","color":"6CB46B","ls":"900000062236","name":"屯佃","en":"tun dian"}},{"type":"Feature","geometry":{"type":"Point","coordinates":[116.23241860162994,40.07063955491393]},"properties":{"pname":"地铁16号线","pshort":"16号线","color":"6CB46B","ls":"900000062236","name":"永丰","en":"yong feng"}},{"type":"Feature","geometry":{"type":"Point","coordinates":[116.24210125356687,40.0643513391159]},"properties":{"pname":"地铁16号线","pshort":"16号线","color":"6CB46B","ls":"900000062236","name":"永丰南","en":"yong feng nan"}},{"type":"Feature","geometry":{"type":"Point","coordinates":[116.25187657128834,40.04748119418135]},"properties":{"pname":"地铁16号线","pshort":"16号线","color":"6CB46B","ls":"900000062236","name":"西北旺","en":"xi bei wang"}},{"type":"Feature","geometry":{"type":"Point","coordinates":[116.26647292289425,40.031410663897724]},"properties":{"pname":"地铁16号线","pshort":"16号线","color":"6CB46B","ls":"900000062236","name":"马连洼","en":"ma lian wa"}},{"type":"Feature","geometry":{"type":"Point","coordinates":[116.27621882846964,40.020164343378255]},"properties":{"pname":"地铁16号线","pshort":"16号线","color":"6CB46B","ls":"900000062236","name":"农大南路","en":"nong da nan lu"}},{"type":"Feature","geometry":{"type":"Point","coordinates":[116.5255079992098,39.90830079703684]},"properties":{"pname":"地铁八通线","pshort":"八通线","color":"CC0000","ls":"110100033086","name":"高碑店","en":"gao bei dian"}},{"type":"Feature","geometry":{"type":"Point","coordinates":[116.54879604441858,39.90812431437458]},"properties":{"pname":"地铁八通线","pshort":"八通线","color":"CC0000","ls":"110100033086","name":"传媒大学","en":"chuan mei da xue"}},{"type":"Feature","geometry":{"type":"Point","coordinates":[116.57090900919401,39.90908453848704]},"properties":{"pname":"地铁八通线","pshort":"八通线","color":"CC0000","ls":"110100033086","name":"双桥","en":"shuang qiao"}},{"type":"Feature","geometry":{"type":"Point","coordinates":[116.5932171770473,39.9080509006647]},"properties":{"pname":"地铁八通线","pshort":"八通线","color":"CC0000","ls":"110100033086","name":"管庄","en":"guan zhuang"}},{"type":"Feature","geometry":{"type":"Point","coordinates":[116.61286254736973,39.90507735772751]},"properties":{"pname":"地铁八通线","pshort":"八通线","color":"CC0000","ls":"110100033086","name":"八里桥","en":"ba li qiao"}},{"type":"Feature","geometry":{"type":"Point","coordinates":[116.63142790792833,39.9028021937009]},"properties":{"pname":"地铁八通线","pshort":"八通线","color":"CC0000","ls":"110100033086","name":"通州北苑","en":"tong zhou bei yuan"}},{"type":"Feature","geometry":{"type":"Point","coordinates":[116.64076313116745,39.89231839266213]},"properties":{"pname":"地铁八通线","pshort":"八通线","color":"CC0000","ls":"110100033086","name":"果园","en":"guo yuan"}},{"type":"Feature","geometry":{"type":"Point","coordinates":[116.65166360467067,39.88918546728033]},"properties":{"pname":"地铁八通线","pshort":"八通线","color":"CC0000","ls":"110100033086","name":"九棵树","en":"jiu ke shu"}},{"type":"Feature","geometry":{"type":"Point","coordinates":[116.66282118956096,39.88256435832497]},"properties":{"pname":"地铁八通线","pshort":"八通线","color":"CC0000","ls":"110100033086","name":"梨园","en":"li yuan"}},{"type":"Feature","geometry":{"type":"Point","coordinates":[116.6728847543682,39.87436455054926]},"properties":{"pname":"地铁八通线","pshort":"八通线","color":"CC0000","ls":"110100033086","name":"临河里","en":"lin he li"}},{"type":"Feature","geometry":{"type":"Point","coordinates":[116.68040186717587,39.87078038633951]},"properties":{"pname":"地铁八通线","pshort":"八通线","color":"CC0000","ls":"110100033086","name":"土桥","en":"tu qiao"}},{"type":"Feature","geometry":{"type":"Point","coordinates":[116.18919952648221,40.24332068731661]},"properties":{"pname":"地铁昌平线","pshort":"昌平线","color":"EB81B9","ls":"110100023118","name":"昌平西山口","en":"chang ping xi shan kou"}},{"type":"Feature","geometry":{"type":"Point","coordinates":[116.20158952878728,40.23897300755724]},"properties":{"pname":"地铁昌平线","pshort":"昌平线","color":"EB81B9","ls":"110100023118","name":"十三陵景区","en":"shi san ling jing qu"}},{"type":"Feature","geometry":{"type":"Point","coordinates":[116.22750268100918,40.2193023745935]},"properties":{"pname":"地铁昌平线","pshort":"昌平线","color":"EB81B9","ls":"110100023118","name":"昌平","en":"chang ping"}},{"type":"Feature","geometry":{"type":"Point","coordinates":[116.25599119501788,40.22048628428006]},"properties":{"pname":"地铁昌平线","pshort":"昌平线","color":"EB81B9","ls":"110100023118","name":"昌平东关","en":"chang ping dong guan"}},{"type":"Feature","geometry":{"type":"Point","coordinates":[116.27587098782107,40.220749058090185]},"properties":{"pname":"地铁昌平线","pshort":"昌平线","color":"EB81B9","ls":"110100023118","name":"北邵洼","en":"bei shao wa"}},{"type":"Feature","geometry":{"type":"Point","coordinates":[116.28145167663338,40.206236435279834]},"properties":{"pname":"地铁昌平线","pshort":"昌平线","color":"EB81B9","ls":"110100023118","name":"南邵","en":"nan shao"}},{"type":"Feature","geometry":{"type":"Point","coordinates":[116.27439560255267,40.163423301283466]},"properties":{"pname":"地铁昌平线","pshort":"昌平线","color":"EB81B9","ls":"110100023118","name":"沙河高教园","en":"sha he gao jiao yuan"}},{"type":"Feature","geometry":{"type":"Point","coordinates":[116.28278846944468,40.147028298472094]},"properties":{"pname":"地铁昌平线","pshort":"昌平线","color":"EB81B9","ls":"110100023118","name":"沙河","en":"sha he"}},{"type":"Feature","geometry":{"type":"Point","coordinates":[116.28789763836768,40.12964559677099]},"properties":{"pname":"地铁昌平线","pshort":"昌平线","color":"EB81B9","ls":"110100023118","name":"巩华城","en":"gong hua cheng"}},{"type":"Feature","geometry":{"type":"Point","coordinates":[116.28815280152197,40.093538238381505]},"properties":{"pname":"地铁昌平线","pshort":"昌平线","color":"EB81B9","ls":"110100023118","name":"生命科学园","en":"sheng ming ke xue yuan"}},{"type":"Feature","geometry":{"type":"Point","coordinates":[116.3593425745206,39.73422840242328]},"properties":{"pname":"北京大兴国际机场线","pshort":"大兴国际机场线","color":"2249A3","ls":"900000076659","name":"大兴新城","en":"DaXing XinCheng"}},{"type":"Feature","geometry":{"type":"Point","coordinates":[116.41053393192374,39.51003336093778]},"properties":{"pname":"北京大兴国际机场线","pshort":"大兴国际机场线","color":"2249A3","ls":"900000076659","name":"大兴机场","en":"DaXing JiChang"}},{"type":"Feature","geometry":{"type":"Point","coordinates":[116.0945142112809,39.72764492586085]},"properties":{"pname":"地铁房山线","pshort":"房山线","color":"EE782E","ls":"110100023092","name":"阎村东","en":"yan cun dong"}},{"type":"Feature","geometry":{"type":"Point","coordinates":[116.11902608647863,39.72181416226227]},"properties":{"pname":"地铁房山线","pshort":"房山线","color":"EE782E","ls":"110100023092","name":"苏庄","en":"su zhuang"}},{"type":"Feature","geometry":{"type":"Point","coordinates":[116.1345529796642,39.7218452155901]},"properties":{"pname":"地铁房山线","pshort":"房山线","color":"EE782E","ls":"110100023092","name":"良乡南关","en":"liang xiang nan guan"}},{"type":"Feature","geometry":{"type":"Point","coordinates":[116.1500682724959,39.721823921151476]},"properties":{"pname":"地铁房山线","pshort":"房山线","color":"EE782E","ls":"110100023092","name":"良乡大学城西","en":"liang xiang da xue cheng xi"}},{"type":"Feature","geometry":{"type":"Point","coordinates":[116.17038312163325,39.721862640859385]},"properties":{"pname":"地铁房山线","pshort":"房山线","color":"EE782E","ls":"110100023092","name":"良乡大学城","en":"liang xiang da xue cheng"}},{"type":"Feature","geometry":{"type":"Point","coordinates":[116.17734088398026,39.72862180271378]},"properties":{"pname":"地铁房山线","pshort":"房山线","color":"EE782E","ls":"110100023092","name":"良乡大学城北","en":"liang xiang da xue cheng bei"}},{"type":"Feature","geometry":{"type":"Point","coordinates":[116.17884784684202,39.74664647255226]},"properties":{"pname":"地铁房山线","pshort":"房山线","color":"EE782E","ls":"110100023092","name":"广阳城","en":"guang yang cheng"}},{"type":"Feature","geometry":{"type":"Point","coordinates":[116.18335976309719,39.75935940214377]},"properties":{"pname":"地铁房山线","pshort":"房山线","color":"EE782E","ls":"110100023092","name":"篱笆房","en":"li ba fang"}},{"type":"Feature","geometry":{"type":"Point","coordinates":[116.2066238959221,39.76263255516248]},"properties":{"pname":"地铁房山线","pshort":"房山线","color":"EE782E","ls":"110100023092","name":"长阳","en":"chang yang"}},{"type":"Feature","geometry":{"type":"Point","coordinates":[116.21278097512463,39.79365196210868]},"properties":{"pname":"地铁房山线","pshort":"房山线","color":"EE782E","ls":"110100023092","name":"稻田","en":"dao tian"}},{"type":"Feature","geometry":{"type":"Point","coordinates":[116.28564320794051,39.80657626187328]},"properties":{"pname":"地铁房山线","pshort":"房山线","color":"EE782E","ls":"110100023092","name":"大葆台","en":"da bao tai"}},{"type":"Feature","geometry":{"type":"Point","coordinates":[116.60977289177318,40.05160875020286]},"properties":{"pname":"首都机场线","pshort":"首都机场线","color":"A49ABD","ls":"110100023096","name":"T3航站楼","en":"T3 hang zhan lou"}},{"type":"Feature","geometry":{"type":"Point","coordinates":[116.58700129421355,40.07826197216272]},"properties":{"pname":"首都机场线","pshort":"首都机场线","color":"A49ABD","ls":"110100023096","name":"T2航站楼","en":"T2 hang zhan lou"}},{"type":"Feature","geometry":{"type":"Point","coordinates":[116.25720969480845,39.98447707654969]},"properties":{"pname":"西郊线","pshort":"西郊线","color":"FC0601","ls":"110100023060","name":"颐和园西门","en":"yi he yuan xi men"}},{"type":"Feature","geometry":{"type":"Point","coordinates":[116.24205764677208,39.980893357550286]},"properties":{"pname":"西郊线","pshort":"西郊线","color":"FC0601","ls":"110100023060","name":"茶棚","en":"cha peng"}},{"type":"Feature","geometry":{"type":"Point","coordinates":[116.22591712818648,39.98277205878697]},"properties":{"pname":"西郊线","pshort":"西郊线","color":"FC0601","ls":"110100023060","name":"万安","en":"wan an"}},{"type":"Feature","geometry":{"type":"Point","coordinates":[116.20876087762741,39.99233337532361]},"properties":{"pname":"西郊线","pshort":"西郊线","color":"FC0601","ls":"110100023060","name":"植物园","en":"zhi wu yuan"}},{"type":"Feature","geometry":{"type":"Point","coordinates":[116.19837485533303,39.992791834145294]},"properties":{"pname":"西郊线","pshort":"西郊线","color":"FC0601","ls":"110100023060","name":"香山","en":"xiang shan"}},{"type":"Feature","geometry":{"type":"Point","coordinates":[116.08042012942182,39.72323039506691]},"properties":{"pname":"地铁燕房线","pshort":"燕房线","color":"EE782E","ls":"900000029622","name":"紫草坞","en":"zi cao wu"}},{"type":"Feature","geometry":{"type":"Point","coordinates":[116.07387111353492,39.715362673420564]},"properties":{"pname":"地铁燕房线","pshort":"燕房线","color":"EE782E","ls":"900000029622","name":"阎村","en":"yan cun"}},{"type":"Feature","geometry":{"type":"Point","coordinates":[116.05510390175051,39.71234122562938]},"properties":{"pname":"地铁燕房线","pshort":"燕房线","color":"EE782E","ls":"900000029622","name":"星城","en":"xing cheng"}},{"type":"Feature","geometry":{"type":"Point","coordinates":[116.03369234241616,39.70860200743969]},"properties":{"pname":"地铁燕房线","pshort":"燕房线","color":"EE782E","ls":"900000029622","name":"大石河东","en":"da shi he dong"}},{"type":"Feature","geometry":{"type":"Point","coordinates":[116.01046621883063,39.70387825745618]},"properties":{"pname":"地铁燕房线","pshort":"燕房线","color":"EE782E","ls":"900000029622","name":"马各庄","en":"ma ge zhuang"}},{"type":"Feature","geometry":{"type":"Point","coordinates":[115.99999936997517,39.70027844447844]},"properties":{"pname":"地铁燕房线","pshort":"燕房线","color":"EE782E","ls":"900000029622","name":"饶乐府","en":"rao le fu"}},{"type":"Feature","geometry":{"type":"Point","coordinates":[115.98355036662049,39.70491717356335]},"properties":{"pname":"地铁燕房线","pshort":"燕房线","color":"EE782E","ls":"900000029622","name":"房山城关","en":"fang shan cheng guan"}},{"type":"Feature","geometry":{"type":"Point","coordinates":[115.96739467861427,39.718514311182815]},"properties":{"pname":"地铁燕房线","pshort":"燕房线","color":"EE782E","ls":"900000029622","name":"燕山","en":"yan shan"}},{"type":"Feature","geometry":{"type":"Point","coordinates":[116.44217689678992,39.832851816226686]},"properties":{"pname":"地铁亦庄线","pshort":"亦庄线","color":"F0087D","ls":"110100023102","name":"肖村","en":"xiao cun"}},{"type":"Feature","geometry":{"type":"Point","coordinates":[116.45306711110288,39.82660733112568]},"properties":{"pname":"地铁亦庄线","pshort":"亦庄线","color":"F0087D","ls":"110100023102","name":"小红门","en":"xiao hong men"}},{"type":"Feature","geometry":{"type":"Point","coordinates":[116.45463715332828,39.80557126175301]},"properties":{"pname":"地铁亦庄线","pshort":"亦庄线","color":"F0087D","ls":"110100023102","name":"旧宫","en":"jiu gong"}},{"type":"Feature","geometry":{"type":"Point","coordinates":[116.47421808415157,39.80172106968084]},"properties":{"pname":"地铁亦庄线","pshort":"亦庄线","color":"F0087D","ls":"110100023102","name":"亦庄桥","en":"yi zhuang qiao"}},{"type":"Feature","geometry":{"type":"Point","coordinates":[116.48457995999169,39.80562895789415]},"properties":{"pname":"地铁亦庄线","pshort":"亦庄线","color":"F0087D","ls":"110100023102","name":"亦庄文化园","en":"yi zhuang wen hua yuan"}},{"type":"Feature","geometry":{"type":"Point","coordinates":[116.49940735349615,39.80175417413013]},"properties":{"pname":"地铁亦庄线","pshort":"亦庄线","color":"F0087D","ls":"110100023102","name":"万源街","en":"wan yuan jie"}},{"type":"Feature","geometry":{"type":"Point","coordinates":[116.50735665573347,39.791996734946494]},"properties":{"pname":"地铁亦庄线","pshort":"亦庄线","color":"F0087D","ls":"110100023102","name":"荣京东街","en":"rong jing dong jie"}},{"type":"Feature","geometry":{"type":"Point","coordinates":[116.51575605125312,39.78166531432943]},"properties":{"pname":"地铁亦庄线","pshort":"亦庄线","color":"F0087D","ls":"110100023102","name":"荣昌东街","en":"rong chang dong jie"}},{"type":"Feature","geometry":{"type":"Point","coordinates":[116.53403266668175,39.77184613685086]},"properties":{"pname":"地铁亦庄线","pshort":"亦庄线","color":"F0087D","ls":"110100023102","name":"同济南路","en":"tong ji nan lu"}},{"type":"Feature","geometry":{"type":"Point","coordinates":[116.55651125114615,39.78260506708091]},"properties":{"pname":"地铁亦庄线","pshort":"亦庄线","color":"F0087D","ls":"110100023102","name":"经海路","en":"jing hai lu"}},{"type":"Feature","geometry":{"type":"Point","coordinates":[116.57557651137805,39.79407551866917]},"properties":{"pname":"地铁亦庄线","pshort":"亦庄线","color":"F0087D","ls":"110100023102","name":"次渠南","en":"ci qu nan"}},{"type":"Feature","geometry":{"type":"Point","coordinates":[116.58572820116103,39.80246445217939]},"properties":{"pname":"地铁亦庄线","pshort":"亦庄线","color":"F0087D","ls":"110100023102","name":"次渠","en":"ci qu"}},{"type":"Feature","geometry":{"type":"Point","coordinates":[116.59613960126269,39.81157375665107]},"properties":{"pname":"地铁亦庄线","pshort":"亦庄线","color":"F0087D","ls":"110100023102","name":"亦庄火车站","en":"yi zhuang huo che zhan"}}]}