{"type":"FeatureCollection","features":[{"type":"Feature","geometry":{"type":"Point","coordinates":[102.720923,25.024383]},"properties":{"pname":"地铁1号线","pshort":"1号线","color":"FC0601","ls":"530100021492","name":"环城南路","en":"HuanCheng NanLu"}},{"type":"Feature","geometry":{"type":"Point","coordinates":[102.723795,25.013698]},"properties":{"pname":"地铁1号线","pshort":"1号线","color":"FC0601","ls":"530100021492","name":"昆明火车站","en":"KunMing HuoCheZhan"}},{"type":"Feature","geometry":{"type":"Point","coordinates":[102.730365,25.006896]},"properties":{"pname":"地铁1号线","pshort":"1号线","color":"FC0601","ls":"530100021492","name":"福德","en":"FuDe"}},{"type":"Feature","geometry":{"type":"Point","coordinates":[102.735077,25.001354]},"properties":{"pname":"地铁1号线","pshort":"1号线","color":"FC0601","ls":"530100021492","name":"日新路","en":"RiXin Lu"}},{"type":"Feature","geometry":{"type":"Point","coordinates":[102.741612,24.996793]},"properties":{"pname":"地铁1号线","pshort":"1号线","color":"FC0601","ls":"530100021492","name":"巫家坝","en":"WuJiaBa"}},{"type":"Feature","geometry":{"type":"Point","coordinates":[102.751029,24.986379]},"properties":{"pname":"地铁1号线","pshort":"1号线","color":"FC0601","ls":"530100021492","name":"昌宏西路","en":"ChangHong XiLu"}},{"type":"Feature","geometry":{"type":"Point","coordinates":[102.761957,24.985303]},"properties":{"pname":"地铁1号线","pshort":"1号线","color":"FC0601","ls":"530100021492","name":"晓东村","en":"Xiao DongCun"}},{"type":"Feature","geometry":{"type":"Point","coordinates":[102.767018,24.972614]},"properties":{"pname":"地铁1号线","pshort":"1号线","color":"FC0601","ls":"530100021492","name":"珥季路","en":"ErJi Lu"}},{"type":"Feature","geometry":{"type":"Point","coordinates":[102.768296,24.956967]},"properties":{"pname":"地铁1号线","pshort":"1号线","color":"FC0601","ls":"530100021492","name":"星耀路","en":"XingYao Lu"}},{"type":"Feature","geometry":{"type":"Point","coordinates":[102.769808,24.947096]},"properties":{"pname":"地铁1号线","pshort":"1号线","color":"FC0601","ls":"530100021492","name":"新亚洲体育城","en":"XinYaZhou TiYuCheng"}},{"type":"Feature","geometry":{"type":"Point","coordinates":[102.77525,24.929345]},"properties":{"pname":"地铁1号线","pshort":"1号线","color":"FC0601","ls":"530100021492","name":"南部汽车站","en":"NanBu QiCheZhan"}},{"type":"Feature","geometry":{"type":"Point","coordinates":[102.791855,24.908169]},"properties":{"pname":"地铁1号线","pshort":"1号线","color":"FC0601","ls":"530100021492","name":"斗南","en":"DouNan"}},{"type":"Feature","geometry":{"type":"Point","coordinates":[102.825302,24.884035]},"properties":{"pname":"地铁1号线","pshort":"1号线","color":"FC0601","ls":"530100021492","name":"春融街","en":"ChunRong Jie"}},{"type":"Feature","geometry":{"type":"Point","coordinates":[102.829427,24.872448]},"properties":{"pname":"地铁1号线","pshort":"1号线","color":"FC0601","ls":"530100021492","name":"驼峰街","en":"TuoFeng Jie"}},{"type":"Feature","geometry":{"type":"Point","coordinates":[102.833951,24.859673]},"properties":{"pname":"地铁1号线","pshort":"1号线","color":"FC0601","ls":"530100021492","name":"联大街","en":"LianDa Jie"}},{"type":"Feature","geometry":{"type":"Point","coordinates":[102.838259,24.847629]},"properties":{"pname":"地铁1号线","pshort":"1号线","color":"FC0601","ls":"530100021492","name":"谊康南路","en":"YiKang NanLu"}},{"type":"Feature","geometry":{"type":"Point","coordinates":[102.842417,24.835941]},"properties":{"pname":"地铁1号线","pshort":"1号线","color":"FC0601","ls":"530100021492","name":"大学城","en":"DaXueCheng"}},{"type":"Feature","geometry":{"type":"Point","coordinates":[102.826176,24.822199]},"properties":{"pname":"地铁1号线","pshort":"1号线","color":"FC0601","ls":"530100021492","name":"大学城南","en":"DaXue ChengNan"}},{"type":"Feature","geometry":{"type":"Point","coordinates":[102.836439,24.882183]},"properties":{"pname":"地铁1号线","pshort":"1号线支线","color":"FC0601","ls":"900000066456","name":"市级行政中心清风","en":"ShiJi XingZheng ZhongXin QingFeng"}},{"type":"Feature","geometry":{"type":"Point","coordinates":[102.844818,24.884599]},"properties":{"pname":"地铁1号线","pshort":"1号线支线","color":"FC0601","ls":"900000066456","name":"宜和路","en":"YiHe Lu"}},{"type":"Feature","geometry":{"type":"Point","coordinates":[102.851919,24.874763]},"properties":{"pname":"地铁1号线","pshort":"1号线支线","color":"FC0601","ls":"900000066456","name":"白龙潭","en":"BaiLongTan"}},{"type":"Feature","geometry":{"type":"Point","coordinates":[102.858484,24.870521]},"properties":{"pname":"地铁1号线","pshort":"1号线支线","color":"FC0601","ls":"900000066456","name":"昆明南火车站","en":"KunMing Nan HuoCheZhan"}},{"type":"Feature","geometry":{"type":"Point","coordinates":[102.72008,25.032405]},"properties":{"pname":"地铁2号线","pshort":"2号线","color":"0065B3","ls":"530100021490","name":"塘子巷","en":"TangZi Xiang"}},{"type":"Feature","geometry":{"type":"Point","coordinates":[102.719665,25.03808]},"properties":{"pname":"地铁2号线","pshort":"2号线","color":"0065B3","ls":"530100021490","name":"东风广场","en":"DongFeng GuangChang"}},{"type":"Feature","geometry":{"type":"Point","coordinates":[102.719484,25.042425]},"properties":{"pname":"地铁2号线","pshort":"2号线","color":"0065B3","ls":"530100021490","name":"交三桥","en":"Jiao SanQiao"}},{"type":"Feature","geometry":{"type":"Point","coordinates":[102.719543,25.049251]},"properties":{"pname":"地铁2号线","pshort":"2号线","color":"0065B3","ls":"530100021490","name":"穿心鼓楼","en":"ChuanXin GuLou"}},{"type":"Feature","geometry":{"type":"Point","coordinates":[102.720577,25.055969]},"properties":{"pname":"地铁2号线","pshort":"2号线","color":"0065B3","ls":"530100021490","name":"火车北站","en":"HuoChe BeiZhan"}},{"type":"Feature","geometry":{"type":"Point","coordinates":[102.723949,25.065956]},"properties":{"pname":"地铁2号线","pshort":"2号线","color":"0065B3","ls":"530100021490","name":"白云路","en":"BaiYun Lu"}},{"type":"Feature","geometry":{"type":"Point","coordinates":[102.727567,25.075547]},"properties":{"pname":"地铁2号线","pshort":"2号线","color":"0065B3","ls":"530100021490","name":"金星","en":"JinXing"}},{"type":"Feature","geometry":{"type":"Point","coordinates":[102.732496,25.081046]},"properties":{"pname":"地铁2号线","pshort":"2号线","color":"0065B3","ls":"530100021490","name":"北辰","en":"BeiChen"}},{"type":"Feature","geometry":{"type":"Point","coordinates":[102.739183,25.093315]},"properties":{"pname":"地铁2号线","pshort":"2号线","color":"0065B3","ls":"530100021490","name":"霖雨桥","en":"LinYu Qiao"}},{"type":"Feature","geometry":{"type":"Point","coordinates":[102.742021,25.101132]},"properties":{"pname":"地铁2号线","pshort":"2号线","color":"0065B3","ls":"530100021490","name":"羊肠村","en":"YangChangCun"}},{"type":"Feature","geometry":{"type":"Point","coordinates":[102.74569,25.109715]},"properties":{"pname":"地铁2号线","pshort":"2号线","color":"0065B3","ls":"530100021490","name":"司家营","en":"SiJiaYing"}},{"type":"Feature","geometry":{"type":"Point","coordinates":[102.753801,25.111895]},"properties":{"pname":"地铁2号线","pshort":"2号线","color":"0065B3","ls":"530100021490","name":"龙头街","en":"LongTou Jie"}},{"type":"Feature","geometry":{"type":"Point","coordinates":[102.76335,25.107208]},"properties":{"pname":"地铁2号线","pshort":"2号线","color":"0065B3","ls":"530100021490","name":"北部汽车站","en":"BeiBu QiCheZhan"}},{"type":"Feature","geometry":{"type":"Point","coordinates":[102.618095,24.984176]},"properties":{"pname":"地铁3号线","pshort":"3号线","color":"A61D7F","ls":"900000040209","name":"西山公园","en":"XiShan GongYuan"}},{"type":"Feature","geometry":{"type":"Point","coordinates":[102.61568,24.994413]},"properties":{"pname":"地铁3号线","pshort":"3号线","color":"A61D7F","ls":"900000040209","name":"车家壁","en":"CheJiaBi"}},{"type":"Feature","geometry":{"type":"Point","coordinates":[102.621099,25.005415]},"properties":{"pname":"地铁3号线","pshort":"3号线","color":"A61D7F","ls":"900000040209","name":"普坪村","en":"PuPingCun"}},{"type":"Feature","geometry":{"type":"Point","coordinates":[102.629454,25.018123]},"properties":{"pname":"地铁3号线","pshort":"3号线","color":"A61D7F","ls":"900000040209","name":"石咀","en":"ShiZui"}},{"type":"Feature","geometry":{"type":"Point","coordinates":[102.635661,25.027713]},"properties":{"pname":"地铁3号线","pshort":"3号线","color":"A61D7F","ls":"900000040209","name":"大渔路","en":"DaYu Lu"}},{"type":"Feature","geometry":{"type":"Point","coordinates":[102.638836,25.035271]},"properties":{"pname":"地铁3号线","pshort":"3号线","color":"A61D7F","ls":"900000040209","name":"西部汽车站","en":"XiBu QiCheZhan"}},{"type":"Feature","geometry":{"type":"Point","coordinates":[102.649438,25.047161]},"properties":{"pname":"地铁3号线","pshort":"3号线","color":"A61D7F","ls":"900000040209","name":"眠山","en":"Mian Shan"}},{"type":"Feature","geometry":{"type":"Point","coordinates":[102.656855,25.046652]},"properties":{"pname":"地铁3号线","pshort":"3号线","color":"A61D7F","ls":"900000040209","name":"昌源中路","en":"ChangYuan ZhongLu"}},{"type":"Feature","geometry":{"type":"Point","coordinates":[102.666506,25.045937]},"properties":{"pname":"地铁3号线","pshort":"3号线","color":"A61D7F","ls":"900000040209","name":"西苑","en":"XiYuan"}},{"type":"Feature","geometry":{"type":"Point","coordinates":[102.67794,25.045082]},"properties":{"pname":"地铁3号线","pshort":"3号线","color":"A61D7F","ls":"900000040209","name":"梁家河","en":"LiangJiaHe"}},{"type":"Feature","geometry":{"type":"Point","coordinates":[102.687386,25.04442]},"properties":{"pname":"地铁3号线","pshort":"3号线","color":"A61D7F","ls":"900000040209","name":"市体育馆","en":"Shi TiYuGuan"}},{"type":"Feature","geometry":{"type":"Point","coordinates":[102.695467,25.043765]},"properties":{"pname":"地铁3号线","pshort":"3号线","color":"A61D7F","ls":"900000040209","name":"潘家湾","en":"PanJiaWan"}},{"type":"Feature","geometry":{"type":"Point","coordinates":[102.706347,25.037085]},"properties":{"pname":"地铁3号线","pshort":"3号线","color":"A61D7F","ls":"900000040209","name":"五一路","en":"WuYi Lu"}},{"type":"Feature","geometry":{"type":"Point","coordinates":[102.729796,25.038291]},"properties":{"pname":"地铁3号线","pshort":"3号线","color":"A61D7F","ls":"900000040209","name":"拓东体育馆","en":"TuoDong TiYuGuan"}},{"type":"Feature","geometry":{"type":"Point","coordinates":[102.740995,25.037211]},"properties":{"pname":"地铁3号线","pshort":"3号线","color":"A61D7F","ls":"900000040209","name":"大树营","en":"DaShuYing"}},{"type":"Feature","geometry":{"type":"Point","coordinates":[102.751215,25.036005]},"properties":{"pname":"地铁3号线","pshort":"3号线","color":"A61D7F","ls":"900000040209","name":"金马寺","en":"JinMaSi"}},{"type":"Feature","geometry":{"type":"Point","coordinates":[102.760802,25.036393]},"properties":{"pname":"地铁3号线","pshort":"3号线","color":"A61D7F","ls":"900000040209","name":"太平村","en":"TaiPingCun"}},{"type":"Feature","geometry":{"type":"Point","coordinates":[102.773152,25.03609]},"properties":{"pname":"地铁3号线","pshort":"3号线","color":"A61D7F","ls":"900000040209","name":"虹桥","en":"HongQiao"}},{"type":"Feature","geometry":{"type":"Point","coordinates":[102.788301,25.03622]},"properties":{"pname":"地铁3号线","pshort":"3号线","color":"A61D7F","ls":"900000040209","name":"东部汽车站","en":"DongBu QiCheZhan"}},{"type":"Feature","geometry":{"type":"Point","coordinates":[102.657587,25.09849]},"properties":{"pname":"地铁4号线","pshort":"4号线","color":"FFA500","ls":"900000071083","name":"金川路","en":"JinChuan Lu"}},{"type":"Feature","geometry":{"type":"Point","coordinates":[102.655239,25.090243]},"properties":{"pname":"地铁4号线","pshort":"4号线","color":"FFA500","ls":"900000071083","name":"大河埂","en":"DaHeGeng"}},{"type":"Feature","geometry":{"type":"Point","coordinates":[102.662071,25.077177]},"properties":{"pname":"地铁4号线","pshort":"4号线","color":"FFA500","ls":"900000071083","name":"海屯路","en":"HaiTun Lu"}},{"type":"Feature","geometry":{"type":"Point","coordinates":[102.674375,25.071105]},"properties":{"pname":"地铁4号线","pshort":"4号线","color":"FFA500","ls":"900000071083","name":"小屯","en":"XiaoTun"}},{"type":"Feature","geometry":{"type":"Point","coordinates":[102.684336,25.06421]},"properties":{"pname":"地铁4号线","pshort":"4号线","color":"FFA500","ls":"900000071083","name":"金鼎山北路","en":"JinDingShan BeiLu"}},{"type":"Feature","geometry":{"type":"Point","coordinates":[102.692655,25.063907]},"properties":{"pname":"地铁4号线","pshort":"4号线","color":"FFA500","ls":"900000071083","name":"苏家塘","en":"SuJiaTang"}},{"type":"Feature","geometry":{"type":"Point","coordinates":[102.708677,25.060624]},"properties":{"pname":"地铁4号线","pshort":"4号线","color":"FFA500","ls":"900000071083","name":"小菜园","en":"XiaoCaiYuan"}},{"type":"Feature","geometry":{"type":"Point","coordinates":[102.735134,25.049091]},"properties":{"pname":"地铁4号线","pshort":"4号线","color":"FFA500","ls":"900000071083","name":"白龙路","en":"BaiLong Lu"}},{"type":"Feature","geometry":{"type":"Point","coordinates":[102.743298,25.030369]},"properties":{"pname":"地铁4号线","pshort":"4号线","color":"FFA500","ls":"900000071083","name":"菊花村","en":"JuHuaCun"}},{"type":"Feature","geometry":{"type":"Point","coordinates":[102.74968,25.024119]},"properties":{"pname":"地铁4号线","pshort":"4号线","color":"FFA500","ls":"900000071083","name":"菊华","en":"JuHua"}},{"type":"Feature","geometry":{"type":"Point","coordinates":[102.762167,25.015702]},"properties":{"pname":"地铁4号线","pshort":"4号线","color":"FFA500","ls":"900000071083","name":"和甸营","en":"HeDianYing"}},{"type":"Feature","geometry":{"type":"Point","coordinates":[102.779734,25.005423]},"properties":{"pname":"地铁4号线","pshort":"4号线","color":"FFA500","ls":"900000071083","name":"牛街庄","en":"NiuJie Zhuang"}},{"type":"Feature","geometry":{"type":"Point","coordinates":[102.783625,24.993534]},"properties":{"pname":"地铁4号线","pshort":"4号线","color":"FFA500","ls":"900000071083","name":"朱家村","en":"ZhuJiaCun"}},{"type":"Feature","geometry":{"type":"Point","coordinates":[102.787582,24.977361]},"properties":{"pname":"地铁4号线","pshort":"4号线","color":"FFA500","ls":"900000071083","name":"羊甫头","en":"YangFuTou"}},{"type":"Feature","geometry":{"type":"Point","coordinates":[102.786498,24.965009]},"properties":{"pname":"地铁4号线","pshort":"4号线","color":"FFA500","ls":"900000071083","name":"玉缘路","en":"YuYuan Lu"}},{"type":"Feature","geometry":{"type":"Point","coordinates":[102.784886,24.950424]},"properties":{"pname":"地铁4号线","pshort":"4号线","color":"FFA500","ls":"900000071083","name":"广卫","en":"GuangWei"}},{"type":"Feature","geometry":{"type":"Point","coordinates":[102.788028,24.937435]},"properties":{"pname":"地铁4号线","pshort":"4号线","color":"FFA500","ls":"900000071083","name":"塔密","en":"TaMi"}},{"type":"Feature","geometry":{"type":"Point","coordinates":[102.787047,24.900333]},"properties":{"pname":"地铁4号线","pshort":"4号线","color":"FFA500","ls":"900000071083","name":"金桂街","en":"JinGui Jie"}},{"type":"Feature","geometry":{"type":"Point","coordinates":[102.788489,24.892582]},"properties":{"pname":"地铁4号线","pshort":"4号线","color":"FFA500","ls":"900000071083","name":"梅子村","en":"MeiZiCun"}},{"type":"Feature","geometry":{"type":"Point","coordinates":[102.79446,24.883768]},"properties":{"pname":"地铁4号线","pshort":"4号线","color":"FFA500","ls":"900000071083","name":"古城","en":"GuCheng"}},{"type":"Feature","geometry":{"type":"Point","coordinates":[102.798268,24.873306]},"properties":{"pname":"地铁4号线","pshort":"4号线","color":"FFA500","ls":"900000071083","name":"可乐村","en":"KeLeCun"}},{"type":"Feature","geometry":{"type":"Point","coordinates":[102.802538,24.858324]},"properties":{"pname":"地铁4号线","pshort":"4号线","color":"FFA500","ls":"900000071083","name":"祥丰街","en":"XiangFeng Jie"}},{"type":"Feature","geometry":{"type":"Point","coordinates":[102.819262,24.855198]},"properties":{"pname":"地铁4号线","pshort":"4号线","color":"FFA500","ls":"900000071083","name":"牛头山","en":"NiuTouShan"}},{"type":"Feature","geometry":{"type":"Point","coordinates":[102.848072,24.86582]},"properties":{"pname":"地铁4号线","pshort":"4号线","color":"FFA500","ls":"900000071083","name":"吴家营","en":"WuJiaYing"}},{"type":"Feature","geometry":{"type":"Point","coordinates":[102.927756,25.095468]},"properties":{"pname":"地铁6号线","pshort":"6号线","color":"008FA5","ls":"530100020528","name":"机场中心","en":"JiChang ZhongXin"}},{"type":"Feature","geometry":{"type":"Point","coordinates":[102.913491,25.084818]},"properties":{"pname":"地铁6号线","pshort":"6号线","color":"008FA5","ls":"530100020528","name":"机场前","en":"JiChang Qian"}},{"type":"Feature","geometry":{"type":"Point","coordinates":[102.876471,25.053348]},"properties":{"pname":"地铁6号线","pshort":"6号线","color":"008FA5","ls":"530100020528","name":"大板桥","en":"DaBan Qiao"}},{"type":"Feature","geometry":{"type":"Point","coordinates":[102.74112,25.027789]},"properties":{"pname":"地铁6号线","pshort":"6号线","color":"008FA5","ls":"530100020528","name":"东郊路","en":"DongJiao Lu"}},{"type":"Feature","geometry":{"type":"Point","coordinates":[102.733256,25.031507]},"properties":{"pname":"地铁6号线","pshort":"6号线","color":"008FA5","ls":"530100020528","name":"岔街","en":"ChaJie"}}]}