{"type":"FeatureCollection","features":[{"type":"Feature","geometry":{"type":"Point","coordinates":[102.71946897274178,25.02734853307744]},"properties":{"pname":"地铁1号线","pshort":"1号线","color":"FC0601","ls":"530100021492","name":"环城南路","en":"HuanCheng NanLu"}},{"type":"Feature","geometry":{"type":"Point","coordinates":[102.7223366332663,25.016661785036526]},"properties":{"pname":"地铁1号线","pshort":"1号线","color":"FC0601","ls":"530100021492","name":"昆明火车站","en":"KunMing HuoCheZhan"}},{"type":"Feature","geometry":{"type":"Point","coordinates":[102.72889726554666,25.00985471303192]},"properties":{"pname":"地铁1号线","pshort":"1号线","color":"FC0601","ls":"530100021492","name":"福德","en":"FuDe"}},{"type":"Feature","geometry":{"type":"Point","coordinates":[102.73360353666784,25.00431007654532]},"properties":{"pname":"地铁1号线","pshort":"1号线","color":"FC0601","ls":"530100021492","name":"日新路","en":"RiXin Lu"}},{"type":"Feature","geometry":{"type":"Point","coordinates":[102.74013190733679,24.99974636497642]},"properties":{"pname":"地铁1号线","pshort":"1号线","color":"FC0601","ls":"530100021492","name":"巫家坝","en":"WuJiaBa"}},{"type":"Feature","geometry":{"type":"Point","coordinates":[102.74954179501725,24.98933211929592]},"properties":{"pname":"地铁1号线","pshort":"1号线","color":"FC0601","ls":"530100021492","name":"昌宏西路","en":"ChangHong XiLu"}},{"type":"Feature","geometry":{"type":"Point","coordinates":[102.76046711348471,24.988258847578244]},"properties":{"pname":"地铁1号线","pshort":"1号线","color":"FC0601","ls":"530100021492","name":"晓东村","en":"Xiao DongCun"}},{"type":"Feature","geometry":{"type":"Point","coordinates":[102.76552854418203,24.97557289234671]},"properties":{"pname":"地铁1号线","pshort":"1号线","color":"FC0601","ls":"530100021492","name":"珥季路","en":"ErJi Lu"}},{"type":"Feature","geometry":{"type":"Point","coordinates":[102.76680717894081,24.959928651332635]},"properties":{"pname":"地铁1号线","pshort":"1号线","color":"FC0601","ls":"530100021492","name":"星耀路","en":"XingYao Lu"}},{"type":"Feature","geometry":{"type":"Point","coordinates":[102.76831975452481,24.95005989284308]},"properties":{"pname":"地铁1号线","pshort":"1号线","color":"FC0601","ls":"530100021492","name":"新亚洲体育城","en":"XinYaZhou TiYuCheng"}},{"type":"Feature","geometry":{"type":"Point","coordinates":[102.77376400822283,24.93231534507542]},"properties":{"pname":"地铁1号线","pshort":"1号线","color":"FC0601","ls":"530100021492","name":"南部汽车站","en":"NanBu QiCheZhan"}},{"type":"Feature","geometry":{"type":"Point","coordinates":[102.79038120699171,24.911160713253135]},"properties":{"pname":"地铁1号线","pshort":"1号线","color":"FC0601","ls":"530100021492","name":"斗南","en":"DouNan"}},{"type":"Feature","geometry":{"type":"Point","coordinates":[102.82387216340041,24.88708632135223]},"properties":{"pname":"地铁1号线","pshort":"1号线","color":"FC0601","ls":"530100021492","name":"春融街","en":"ChunRong Jie"}},{"type":"Feature","geometry":{"type":"Point","coordinates":[102.82800366278111,24.875508517866415]},"properties":{"pname":"地铁1号线","pshort":"1号线","color":"FC0601","ls":"530100021492","name":"驼峰街","en":"TuoFeng Jie"}},{"type":"Feature","geometry":{"type":"Point","coordinates":[102.83253477279463,24.862743570873597]},"properties":{"pname":"地铁1号线","pshort":"1号线","color":"FC0601","ls":"530100021492","name":"联大街","en":"LianDa Jie"}},{"type":"Feature","geometry":{"type":"Point","coordinates":[102.83684944911481,24.85070901902055]},"properties":{"pname":"地铁1号线","pshort":"1号线","color":"FC0601","ls":"530100021492","name":"谊康南路","en":"YiKang NanLu"}},{"type":"Feature","geometry":{"type":"Point","coordinates":[102.84101374480701,24.83902997665688]},"properties":{"pname":"地铁1号线","pshort":"1号线","color":"FC0601","ls":"530100021492","name":"大学城","en":"DaXueCheng"}},{"type":"Feature","geometry":{"type":"Point","coordinates":[102.82474926996905,24.825258901388118]},"properties":{"pname":"地铁1号线","pshort":"1号线","color":"FC0601","ls":"530100021492","name":"大学城南","en":"DaXue ChengNan"}},{"type":"Feature","geometry":{"type":"Point","coordinates":[102.83502578783704,24.885255603999877]},"properties":{"pname":"地铁1号线","pshort":"1号线支线","color":"FC0601","ls":"900000066456","name":"市级行政中心清风","en":"ShiJi XingZheng ZhongXin QingFeng"}},{"type":"Feature","geometry":{"type":"Point","coordinates":[102.84341668418985,24.887686767127075]},"properties":{"pname":"地铁1号线","pshort":"1号线支线","color":"FC0601","ls":"900000066456","name":"宜和路","en":"YiHe Lu"}},{"type":"Feature","geometry":{"type":"Point","coordinates":[102.85052735367624,24.877864400371134]},"properties":{"pname":"地铁1号线","pshort":"1号线支线","color":"FC0601","ls":"900000066456","name":"白龙潭","en":"BaiLongTan"}},{"type":"Feature","geometry":{"type":"Point","coordinates":[102.85710025946729,24.87363363514946]},"properties":{"pname":"地铁1号线","pshort":"1号线支线","color":"FC0601","ls":"900000066456","name":"昆明南火车站","en":"KunMing Nan HuoCheZhan"}},{"type":"Feature","geometry":{"type":"Point","coordinates":[102.7186271555108,25.035370533191834]},"properties":{"pname":"地铁2号线","pshort":"2号线","color":"0065B3","ls":"530100021490","name":"塘子巷","en":"TangZi Xiang"}},{"type":"Feature","geometry":{"type":"Point","coordinates":[102.71821269578476,25.041045351496052]},"properties":{"pname":"地铁2号线","pshort":"2号线","color":"0065B3","ls":"530100021490","name":"东风广场","en":"DongFeng GuangChang"}},{"type":"Feature","geometry":{"type":"Point","coordinates":[102.71803187842615,25.045390066497234]},"properties":{"pname":"地铁2号线","pshort":"2号线","color":"0065B3","ls":"530100021490","name":"交三桥","en":"Jiao SanQiao"}},{"type":"Feature","geometry":{"type":"Point","coordinates":[102.71809057740063,25.052215240554265]},"properties":{"pname":"地铁2号线","pshort":"2号线","color":"0065B3","ls":"530100021490","name":"穿心鼓楼","en":"ChuanXin GuLou"}},{"type":"Feature","geometry":{"type":"Point","coordinates":[102.71912262643343,25.058931348114957]},"properties":{"pname":"地铁2号线","pshort":"2号线","color":"0065B3","ls":"530100021490","name":"火车北站","en":"HuoChe BeiZhan"}},{"type":"Feature","geometry":{"type":"Point","coordinates":[102.72248885805132,25.06891373688695]},"properties":{"pname":"地铁2号线","pshort":"2号线","color":"0065B3","ls":"530100021490","name":"白云路","en":"BaiYun Lu"}},{"type":"Feature","geometry":{"type":"Point","coordinates":[102.72610113394217,25.07850035589226]},"properties":{"pname":"地铁2号线","pshort":"2号线","color":"0065B3","ls":"530100021490","name":"金星","en":"JinXing"}},{"type":"Feature","geometry":{"type":"Point","coordinates":[102.73102331287451,25.083994885183447]},"properties":{"pname":"地铁2号线","pshort":"2号线","color":"0065B3","ls":"530100021490","name":"北辰","en":"BeiChen"}},{"type":"Feature","geometry":{"type":"Point","coordinates":[102.737702375197,25.096258773047]},"properties":{"pname":"地铁2号线","pshort":"2号线","color":"0065B3","ls":"530100021490","name":"霖雨桥","en":"LinYu Qiao"}},{"type":"Feature","geometry":{"type":"Point","coordinates":[102.74053745393601,25.104073891687445]},"properties":{"pname":"地铁2号线","pshort":"2号线","color":"0065B3","ls":"530100021490","name":"羊肠村","en":"YangChangCun"}},{"type":"Feature","geometry":{"type":"Point","coordinates":[102.7442022187822,25.11265502289838]},"properties":{"pname":"地铁2号线","pshort":"2号线","color":"0065B3","ls":"530100021490","name":"司家营","en":"SiJiaYing"}},{"type":"Feature","geometry":{"type":"Point","coordinates":[102.75230892615511,25.114834694412643]},"properties":{"pname":"地铁2号线","pshort":"2号线","color":"0065B3","ls":"530100021490","name":"龙头街","en":"LongTou Jie"}},{"type":"Feature","geometry":{"type":"Point","coordinates":[102.76185648896012,25.110151098540886]},"properties":{"pname":"地铁2号线","pshort":"2号线","color":"0065B3","ls":"530100021490","name":"北部汽车站","en":"BeiBu QiCheZhan"}},{"type":"Feature","geometry":{"type":"Point","coordinates":[102.61685994860166,24.987307880085623]},"properties":{"pname":"地铁3号线","pshort":"3号线","color":"A61D7F","ls":"900000040209","name":"西山公园","en":"XiShan GongYuan"}},{"type":"Feature","geometry":{"type":"Point","coordinates":[102.6144474104754,24.997545388291353]},"properties":{"pname":"地铁3号线","pshort":"3号线","color":"A61D7F","ls":"900000040209","name":"车家壁","en":"CheJiaBi"}},{"type":"Feature","geometry":{"type":"Point","coordinates":[102.61985960858271,25.00854171537645]},"properties":{"pname":"地铁3号线","pshort":"3号线","color":"A61D7F","ls":"900000040209","name":"普坪村","en":"PuPingCun"}},{"type":"Feature","geometry":{"type":"Point","coordinates":[102.6282019062376,25.02123947583613]},"properties":{"pname":"地铁3号线","pshort":"3号线","color":"A61D7F","ls":"900000040209","name":"石咀","en":"ShiZui"}},{"type":"Feature","geometry":{"type":"Point","coordinates":[102.6343978123653,25.030820430609246]},"properties":{"pname":"地铁3号线","pshort":"3号线","color":"A61D7F","ls":"900000040209","name":"大渔路","en":"DaYu Lu"}},{"type":"Feature","geometry":{"type":"Point","coordinates":[102.63756657720909,25.038373084875026]},"properties":{"pname":"地铁3号线","pshort":"3号线","color":"A61D7F","ls":"900000040209","name":"西部汽车站","en":"XiBu QiCheZhan"}},{"type":"Feature","geometry":{"type":"Point","coordinates":[102.64814609208695,25.050245056900298]},"properties":{"pname":"地铁3号线","pshort":"3号线","color":"A61D7F","ls":"900000040209","name":"眠山","en":"Mian Shan"}},{"type":"Feature","geometry":{"type":"Point","coordinates":[102.65554611596292,25.049723163898157]},"properties":{"pname":"地铁3号线","pshort":"3号线","color":"A61D7F","ls":"900000040209","name":"昌源中路","en":"ChangYuan ZhongLu"}},{"type":"Feature","geometry":{"type":"Point","coordinates":[102.66517381581087,25.048990391709193]},"properties":{"pname":"地铁3号线","pshort":"3号线","color":"A61D7F","ls":"900000040209","name":"西苑","en":"XiYuan"}},{"type":"Feature","geometry":{"type":"Point","coordinates":[102.67657941424099,25.048113759690473]},"properties":{"pname":"地铁3号线","pshort":"3号线","color":"A61D7F","ls":"900000040209","name":"梁家河","en":"LiangJiaHe"}},{"type":"Feature","geometry":{"type":"Point","coordinates":[102.68600215636846,25.047434192447636]},"properties":{"pname":"地铁3号线","pshort":"3号线","color":"A61D7F","ls":"900000040209","name":"市体育馆","en":"Shi TiYuGuan"}},{"type":"Feature","geometry":{"type":"Point","coordinates":[102.69406397907738,25.046764912225548]},"properties":{"pname":"地铁3号线","pshort":"3号线","color":"A61D7F","ls":"900000040209","name":"潘家湾","en":"PanJiaWan"}},{"type":"Feature","geometry":{"type":"Point","coordinates":[102.70492013248398,25.040068108145125]},"properties":{"pname":"地铁3号线","pshort":"3号线","color":"A61D7F","ls":"900000040209","name":"五一路","en":"WuYi Lu"}},{"type":"Feature","geometry":{"type":"Point","coordinates":[102.72832810951448,25.041246457034518]},"properties":{"pname":"地铁3号线","pshort":"3号线","color":"A61D7F","ls":"900000040209","name":"拓东体育馆","en":"TuoDong TiYuGuan"}},{"type":"Feature","geometry":{"type":"Point","coordinates":[102.73951428072189,25.040159777438372]},"properties":{"pname":"地铁3号线","pshort":"3号线","color":"A61D7F","ls":"900000040209","name":"大树营","en":"DaShuYing"}},{"type":"Feature","geometry":{"type":"Point","coordinates":[102.74972623787426,25.03895210038432]},"properties":{"pname":"地铁3号线","pshort":"3号线","color":"A61D7F","ls":"900000040209","name":"金马寺","en":"JinMaSi"}},{"type":"Feature","geometry":{"type":"Point","coordinates":[102.75931065894626,25.03934215580547]},"properties":{"pname":"地铁3号线","pshort":"3号线","color":"A61D7F","ls":"900000040209","name":"太平村","en":"TaiPingCun"}},{"type":"Feature","geometry":{"type":"Point","coordinates":[102.7716620477056,25.039045332355354]},"properties":{"pname":"地铁3号线","pshort":"3号线","color":"A61D7F","ls":"900000040209","name":"虹桥","en":"HongQiao"}},{"type":"Feature","geometry":{"type":"Point","coordinates":[102.7868202081439,25.039191044206532]},"properties":{"pname":"地铁3号线","pshort":"3号线","color":"A61D7F","ls":"900000040209","name":"东部汽车站","en":"DongBu QiCheZhan"}},{"type":"Feature","geometry":{"type":"Point","coordinates":[102.65627493209202,25.101554652867183]},"properties":{"pname":"地铁4号线","pshort":"4号线","color":"FFA500","ls":"900000071083","name":"金川路","en":"JinChuan Lu"}},{"type":"Feature","geometry":{"type":"Point","coordinates":[102.65393267965602,25.09331260868501]},"properties":{"pname":"地铁4号线","pshort":"4号线","color":"FFA500","ls":"900000071083","name":"大河埂","en":"DaHeGeng"}},{"type":"Feature","geometry":{"type":"Point","coordinates":[102.66074878162391,25.080235417652357]},"properties":{"pname":"地铁4号线","pshort":"4号线","color":"FFA500","ls":"900000071083","name":"海屯路","en":"HaiTun Lu"}},{"type":"Feature","geometry":{"type":"Point","coordinates":[102.67302255999265,25.074140767025668]},"properties":{"pname":"地铁4号线","pshort":"4号线","color":"FFA500","ls":"900000071083","name":"小屯","en":"XiaoTun"}},{"type":"Feature","geometry":{"type":"Point","coordinates":[102.68295903639991,25.067227677148217]},"properties":{"pname":"地铁4号线","pshort":"4号线","color":"FFA500","ls":"900000071083","name":"金鼎山北路","en":"JinDingShan BeiLu"}},{"type":"Feature","geometry":{"type":"Point","coordinates":[102.69125797474378,25.06690962484966]},"properties":{"pname":"地铁4号线","pshort":"4号线","color":"FFA500","ls":"900000071083","name":"苏家塘","en":"SuJiaTang"}},{"type":"Feature","geometry":{"type":"Point","coordinates":[102.70724464704683,25.063601093996283]},"properties":{"pname":"地铁4号线","pshort":"4号线","color":"FFA500","ls":"900000071083","name":"小菜园","en":"XiaoCaiYuan"}},{"type":"Feature","geometry":{"type":"Point","coordinates":[102.73365906322607,25.052041444102834]},"properties":{"pname":"地铁4号线","pshort":"4号线","color":"FFA500","ls":"900000071083","name":"白龙路","en":"BaiLong Lu"}},{"type":"Feature","geometry":{"type":"Point","coordinates":[102.74181544238202,25.03331773372823]},"properties":{"pname":"地铁4号线","pshort":"4号线","color":"FFA500","ls":"900000071083","name":"菊花村","en":"JuHuaCun"}},{"type":"Feature","geometry":{"type":"Point","coordinates":[102.74819234608488,25.027067478970192]},"properties":{"pname":"地铁4号线","pshort":"4号线","color":"FFA500","ls":"900000071083","name":"菊华","en":"JuHua"}},{"type":"Feature","geometry":{"type":"Point","coordinates":[102.76067620647596,25.018654179799917]},"properties":{"pname":"地铁4号线","pshort":"4号线","color":"FFA500","ls":"900000071083","name":"和甸营","en":"HeDianYing"}},{"type":"Feature","geometry":{"type":"Point","coordinates":[102.77824798311362,25.008387906674386]},"properties":{"pname":"地铁4号线","pshort":"4号线","color":"FFA500","ls":"900000071083","name":"牛街庄","en":"NiuJie Zhuang"}},{"type":"Feature","geometry":{"type":"Point","coordinates":[102.78214182928022,24.99650454670745]},"properties":{"pname":"地铁4号线","pshort":"4号线","color":"FFA500","ls":"900000071083","name":"朱家村","en":"ZhuJiaCun"}},{"type":"Feature","geometry":{"type":"Point","coordinates":[102.78610234758854,24.980338296720955]},"properties":{"pname":"地铁4号线","pshort":"4号线","color":"FFA500","ls":"900000071083","name":"羊甫头","en":"YangFuTou"}},{"type":"Feature","geometry":{"type":"Point","coordinates":[102.78501783193225,24.96798653076701]},"properties":{"pname":"地铁4号线","pshort":"4号线","color":"FFA500","ls":"900000071083","name":"玉缘路","en":"YuYuan Lu"}},{"type":"Feature","geometry":{"type":"Point","coordinates":[102.78340502063553,24.953401471998458]},"properties":{"pname":"地铁4号线","pshort":"4号线","color":"FFA500","ls":"900000071083","name":"广卫","en":"GuangWei"}},{"type":"Feature","geometry":{"type":"Point","coordinates":[102.78654990164185,24.940417961361888]},"properties":{"pname":"地铁4号线","pshort":"4号线","color":"FFA500","ls":"900000071083","name":"塔密","en":"TaMi"}},{"type":"Feature","geometry":{"type":"Point","coordinates":[102.78556918572609,24.90331942929902]},"properties":{"pname":"地铁4号线","pshort":"4号线","color":"FFA500","ls":"900000071083","name":"金桂街","en":"JinGui Jie"}},{"type":"Feature","geometry":{"type":"Point","coordinates":[102.78701261833397,24.89557119676781]},"properties":{"pname":"地铁4号线","pshort":"4号线","color":"FFA500","ls":"900000071083","name":"梅子村","en":"MeiZiCun"}},{"type":"Feature","geometry":{"type":"Point","coordinates":[102.79298950444318,24.886766374478036]},"properties":{"pname":"地铁4号线","pshort":"4号线","color":"FFA500","ls":"900000071083","name":"古城","en":"GuCheng"}},{"type":"Feature","geometry":{"type":"Point","coordinates":[102.79680189862489,24.876311267361157]},"properties":{"pname":"地铁4号线","pshort":"4号线","color":"FFA500","ls":"900000071083","name":"可乐村","en":"KeLeCun"}},{"type":"Feature","geometry":{"type":"Point","coordinates":[102.80107732995225,24.861337725336355]},"properties":{"pname":"地铁4号线","pshort":"4号线","color":"FFA500","ls":"900000071083","name":"祥丰街","en":"XiangFeng Jie"}},{"type":"Feature","geometry":{"type":"Point","coordinates":[102.81782408455146,24.858241388337163]},"properties":{"pname":"地铁4号线","pshort":"4号线","color":"FFA500","ls":"900000071083","name":"牛头山","en":"NiuTouShan"}},{"type":"Feature","geometry":{"type":"Point","coordinates":[102.84667563501003,24.868915799154248]},"properties":{"pname":"地铁4号线","pshort":"4号线","color":"FFA500","ls":"900000071083","name":"吴家营","en":"WuJiaYing"}},{"type":"Feature","geometry":{"type":"Point","coordinates":[102.92634945123827,25.098579197516607]},"properties":{"pname":"地铁6号线","pshort":"6号线","color":"008FA5","ls":"530100020528","name":"机场中心","en":"JiChang ZhongXin"}},{"type":"Feature","geometry":{"type":"Point","coordinates":[102.91210625769256,25.087941265597447]},"properties":{"pname":"地铁6号线","pshort":"6号线","color":"008FA5","ls":"530100020528","name":"机场前","en":"JiChang Qian"}},{"type":"Feature","geometry":{"type":"Point","coordinates":[102.87509712239803,25.056462055182504]},"properties":{"pname":"地铁6号线","pshort":"6号线","color":"008FA5","ls":"530100020528","name":"大板桥","en":"DaBan Qiao"}},{"type":"Feature","geometry":{"type":"Point","coordinates":[102.7396394429864,25.030738815455823]},"properties":{"pname":"地铁6号线","pshort":"6号线","color":"008FA5","ls":"530100020528","name":"东郊路","en":"DongJiao Lu"}},{"type":"Feature","geometry":{"type":"Point","coordinates":[102.73178382681068,25.03446065496034]},"properties":{"pname":"地铁6号线","pshort":"6号线","color":"008FA5","ls":"530100020528","name":"岔街","en":"ChaJie"}}]}