{"type":"FeatureCollection","features":[{"type":"Feature","geometry":{"type":"Point","coordinates":[103.65995520796977,36.08727560293496]},"properties":{"pname":"轨道交通1号线","pshort":"1号线","color":"0065B3","ls":"900000028566","name":"陈官营","en":"ChenGuanYing"}},{"type":"Feature","geometry":{"type":"Point","coordinates":[103.67566534529185,36.09085496228944]},"properties":{"pname":"轨道交通1号线","pshort":"1号线","color":"0065B3","ls":"900000028566","name":"深安大桥南","en":"ShenAn DaQiao Nan"}},{"type":"Feature","geometry":{"type":"Point","coordinates":[103.6986958210658,36.09916050887551]},"properties":{"pname":"轨道交通1号线","pshort":"1号线","color":"0065B3","ls":"900000028566","name":"兰州城市学院(省科技馆)","en":"LanZhou ChengShi XueYuan (Sheng KeJiGuan)"}},{"type":"Feature","geometry":{"type":"Point","coordinates":[103.70702377049248,36.09476250665563]},"properties":{"pname":"轨道交通1号线","pshort":"1号线","color":"0065B3","ls":"900000028566","name":"兰州海关","en":"LanZhou HaiGuan"}},{"type":"Feature","geometry":{"type":"Point","coordinates":[103.72480710491871,36.0831374914613]},"properties":{"pname":"轨道交通1号线","pshort":"1号线","color":"0065B3","ls":"900000028566","name":"马滩","en":"MaTan"}},{"type":"Feature","geometry":{"type":"Point","coordinates":[103.74066670224397,36.07328215392386]},"properties":{"pname":"轨道交通1号线","pshort":"1号线","color":"0065B3","ls":"900000028566","name":"土门墩","en":"TuMenDun"}},{"type":"Feature","geometry":{"type":"Point","coordinates":[103.75016670902305,36.071679810937326]},"properties":{"pname":"轨道交通1号线","pshort":"1号线","color":"0065B3","ls":"900000028566","name":"兰州西站北广场","en":"LanZhou XiZhan Bei GuangChang"}},{"type":"Feature","geometry":{"type":"Point","coordinates":[103.76700666332836,36.06872643241573]},"properties":{"pname":"轨道交通1号线","pshort":"1号线","color":"0065B3","ls":"900000028566","name":"西站什字","en":"XiZhan ShiZi"}},{"type":"Feature","geometry":{"type":"Point","coordinates":[103.7787659432387,36.06664650530912]},"properties":{"pname":"轨道交通1号线","pshort":"1号线","color":"0065B3","ls":"900000028566","name":"七里河","en":"QiLiHe"}},{"type":"Feature","geometry":{"type":"Point","coordinates":[103.79380670251886,36.06377773434154]},"properties":{"pname":"轨道交通1号线","pshort":"1号线","color":"0065B3","ls":"900000028566","name":"小西湖","en":"XiaoXiHu"}},{"type":"Feature","geometry":{"type":"Point","coordinates":[103.80271784406712,36.061401984138584]},"properties":{"pname":"轨道交通1号线","pshort":"1号线","color":"0065B3","ls":"900000028566","name":"文化宫","en":"WenHuaGong"}},{"type":"Feature","geometry":{"type":"Point","coordinates":[103.81449054915387,36.05966371492415]},"properties":{"pname":"轨道交通1号线","pshort":"1号线","color":"0065B3","ls":"900000028566","name":"西关","en":"XiGuan"}},{"type":"Feature","geometry":{"type":"Point","coordinates":[103.8241896436207,36.05945167374057]},"properties":{"pname":"轨道交通1号线","pshort":"1号线","color":"0065B3","ls":"900000028566","name":"省政府","en":"ShengZhengFu"}},{"type":"Feature","geometry":{"type":"Point","coordinates":[103.8402897284996,36.05348896856094]},"properties":{"pname":"轨道交通1号线","pshort":"1号线","color":"0065B3","ls":"900000028566","name":"东方红广场","en":"DongFangHong GuangChang"}},{"type":"Feature","geometry":{"type":"Point","coordinates":[103.85422488643042,36.05032075013305]},"properties":{"pname":"轨道交通1号线","pshort":"1号线","color":"0065B3","ls":"900000028566","name":"兰州大学","en":"LanZhou DaXue"}},{"type":"Feature","geometry":{"type":"Point","coordinates":[103.86774974141069,36.047187109784815]},"properties":{"pname":"轨道交通1号线","pshort":"1号线","color":"0065B3","ls":"900000028566","name":"五里铺","en":"WuLi Pu"}},{"type":"Feature","geometry":{"type":"Point","coordinates":[103.88114006669635,36.041987467808156]},"properties":{"pname":"轨道交通1号线","pshort":"1号线","color":"0065B3","ls":"900000028566","name":"省气象局","en":"Sheng QiXiangJu"}},{"type":"Feature","geometry":{"type":"Point","coordinates":[103.89308840046311,36.039519034564464]},"properties":{"pname":"轨道交通1号线","pshort":"1号线","color":"0065B3","ls":"900000028566","name":"拱星墩","en":"GongXingDun"}},{"type":"Feature","geometry":{"type":"Point","coordinates":[103.90543325245798,36.038720638234345]},"properties":{"pname":"轨道交通1号线","pshort":"1号线","color":"0065B3","ls":"900000028566","name":"焦家湾","en":"JiaoJiaWan"}},{"type":"Feature","geometry":{"type":"Point","coordinates":[103.91545950877897,36.040874247246364]},"properties":{"pname":"轨道交通1号线","pshort":"1号线","color":"0065B3","ls":"900000028566","name":"东岗","en":"DongGang"}}]}