{"type":"FeatureCollection","features":[{"type":"Feature","geometry":{"type":"Point","coordinates":[103.662299,36.08694]},"properties":{"pname":"轨道交通1号线","pshort":"1号线","color":"0065B3","ls":"900000028566","name":"陈官营","en":"ChenGuanYing"}},{"type":"Feature","geometry":{"type":"Point","coordinates":[103.678051,36.09055]},"properties":{"pname":"轨道交通1号线","pshort":"1号线","color":"0065B3","ls":"900000028566","name":"深安大桥南","en":"ShenAn DaQiao Nan"}},{"type":"Feature","geometry":{"type":"Point","coordinates":[103.70114,36.098899]},"properties":{"pname":"轨道交通1号线","pshort":"1号线","color":"0065B3","ls":"900000028566","name":"兰州城市学院(省科技馆)","en":"LanZhou ChengShi XueYuan (Sheng KeJiGuan)"}},{"type":"Feature","geometry":{"type":"Point","coordinates":[103.709486,36.094513]},"properties":{"pname":"轨道交通1号线","pshort":"1号线","color":"0065B3","ls":"900000028566","name":"兰州海关","en":"LanZhou HaiGuan"}},{"type":"Feature","geometry":{"type":"Point","coordinates":[103.7273,36.082907]},"properties":{"pname":"轨道交通1号线","pshort":"1号线","color":"0065B3","ls":"900000028566","name":"马滩","en":"MaTan"}},{"type":"Feature","geometry":{"type":"Point","coordinates":[103.743176,36.07306]},"properties":{"pname":"轨道交通1号线","pshort":"1号线","color":"0065B3","ls":"900000028566","name":"土门墩","en":"TuMenDun"}},{"type":"Feature","geometry":{"type":"Point","coordinates":[103.752681,36.071459]},"properties":{"pname":"轨道交通1号线","pshort":"1号线","color":"0065B3","ls":"900000028566","name":"兰州西站北广场","en":"LanZhou XiZhan Bei GuangChang"}},{"type":"Feature","geometry":{"type":"Point","coordinates":[103.769518,36.0685]},"properties":{"pname":"轨道交通1号线","pshort":"1号线","color":"0065B3","ls":"900000028566","name":"西站什字","en":"XiZhan ShiZi"}},{"type":"Feature","geometry":{"type":"Point","coordinates":[103.781268,36.06641]},"properties":{"pname":"轨道交通1号线","pshort":"1号线","color":"0065B3","ls":"900000028566","name":"七里河","en":"QiLiHe"}},{"type":"Feature","geometry":{"type":"Point","coordinates":[103.796289,36.063522]},"properties":{"pname":"轨道交通1号线","pshort":"1号线","color":"0065B3","ls":"900000028566","name":"小西湖","en":"XiaoXiHu"}},{"type":"Feature","geometry":{"type":"Point","coordinates":[103.805185,36.061132]},"properties":{"pname":"轨道交通1号线","pshort":"1号线","color":"0065B3","ls":"900000028566","name":"文化宫","en":"WenHuaGong"}},{"type":"Feature","geometry":{"type":"Point","coordinates":[103.816935,36.059373]},"properties":{"pname":"轨道交通1号线","pshort":"1号线","color":"0065B3","ls":"900000028566","name":"西关","en":"XiGuan"}},{"type":"Feature","geometry":{"type":"Point","coordinates":[103.826614,36.059143]},"properties":{"pname":"轨道交通1号线","pshort":"1号线","color":"0065B3","ls":"900000028566","name":"省政府","en":"ShengZhengFu"}},{"type":"Feature","geometry":{"type":"Point","coordinates":[103.84268,36.053149]},"properties":{"pname":"轨道交通1号线","pshort":"1号线","color":"0065B3","ls":"900000028566","name":"东方红广场","en":"DongFangHong GuangChang"}},{"type":"Feature","geometry":{"type":"Point","coordinates":[103.856588,36.049956]},"properties":{"pname":"轨道交通1号线","pshort":"1号线","color":"0065B3","ls":"900000028566","name":"兰州大学","en":"LanZhou DaXue"}},{"type":"Feature","geometry":{"type":"Point","coordinates":[103.870091,36.046802]},"properties":{"pname":"轨道交通1号线","pshort":"1号线","color":"0065B3","ls":"900000028566","name":"五里铺","en":"WuLi Pu"}},{"type":"Feature","geometry":{"type":"Point","coordinates":[103.883466,36.041587]},"properties":{"pname":"轨道交通1号线","pshort":"1号线","color":"0065B3","ls":"900000028566","name":"省气象局","en":"Sheng QiXiangJu"}},{"type":"Feature","geometry":{"type":"Point","coordinates":[103.895407,36.03911]},"properties":{"pname":"轨道交通1号线","pshort":"1号线","color":"0065B3","ls":"900000028566","name":"拱星墩","en":"GongXingDun"}},{"type":"Feature","geometry":{"type":"Point","coordinates":[103.907753,36.038311]},"properties":{"pname":"轨道交通1号线","pshort":"1号线","color":"0065B3","ls":"900000028566","name":"焦家湾","en":"JiaoJiaWan"}},{"type":"Feature","geometry":{"type":"Point","coordinates":[103.917786,36.040469]},"properties":{"pname":"轨道交通1号线","pshort":"1号线","color":"0065B3","ls":"900000028566","name":"东岗","en":"DongGang"}}]}