{"type":"FeatureCollection","features":[{"type":"Feature","geometry":{"type":"Point","coordinates":[108.40999374734679,22.84232966963047]},"properties":{"pname":"轨道交通1号线","pshort":"1号线","color":"6CB46B","ls":"900000058314","name":"火车东站","en":"HuoChe DongZhan"}},{"type":"Feature","geometry":{"type":"Point","coordinates":[108.42079410759143,22.834505961307197]},"properties":{"pname":"轨道交通1号线","pshort":"1号线","color":"6CB46B","ls":"900000058314","name":"佛子岭","en":"FoZiLing"}},{"type":"Feature","geometry":{"type":"Point","coordinates":[108.42385980788951,22.820778748096753]},"properties":{"pname":"轨道交通1号线","pshort":"1号线","color":"6CB46B","ls":"900000058314","name":"百花岭","en":"BaiHuaLing"}},{"type":"Feature","geometry":{"type":"Point","coordinates":[108.41454741220053,22.815585516634563]},"properties":{"pname":"轨道交通1号线","pshort":"1号线","color":"6CB46B","ls":"900000058314","name":"埌东客运站","en":"LangDong KeYunZhan"}},{"type":"Feature","geometry":{"type":"Point","coordinates":[108.4062490274402,22.815780418397974]},"properties":{"pname":"轨道交通1号线","pshort":"1号线","color":"6CB46B","ls":"900000058314","name":"凤岭","en":"FengLing"}},{"type":"Feature","geometry":{"type":"Point","coordinates":[108.394961853217,22.815726245324683]},"properties":{"pname":"轨道交通1号线","pshort":"1号线","color":"6CB46B","ls":"900000058314","name":"东盟商务区","en":"DongMeng ShangWu Qu"}},{"type":"Feature","geometry":{"type":"Point","coordinates":[108.38792880497961,22.815706452947673]},"properties":{"pname":"轨道交通1号线","pshort":"1号线","color":"6CB46B","ls":"900000058314","name":"万象城","en":"WanXiangCheng"}},{"type":"Feature","geometry":{"type":"Point","coordinates":[108.37964123096687,22.815536822185845]},"properties":{"pname":"轨道交通1号线","pshort":"1号线","color":"6CB46B","ls":"900000058314","name":"会展中心","en":"HuiZhan ZhongXin"}},{"type":"Feature","geometry":{"type":"Point","coordinates":[108.3682821507586,22.815579407793464]},"properties":{"pname":"轨道交通1号线","pshort":"1号线","color":"6CB46B","ls":"900000058314","name":"金湖广场","en":"JinHu GuangChang"}},{"type":"Feature","geometry":{"type":"Point","coordinates":[108.35900664381172,22.816368288873814]},"properties":{"pname":"轨道交通1号线","pshort":"1号线","color":"6CB46B","ls":"900000058314","name":"南湖","en":"NanHu"}},{"type":"Feature","geometry":{"type":"Point","coordinates":[108.34343975198296,22.81573786325609]},"properties":{"pname":"轨道交通1号线","pshort":"1号线","color":"6CB46B","ls":"900000058314","name":"麻村","en":"MaCun"}},{"type":"Feature","geometry":{"type":"Point","coordinates":[108.33233798311302,22.815792580651703]},"properties":{"pname":"轨道交通1号线","pshort":"1号线","color":"6CB46B","ls":"900000058314","name":"民族广场","en":"MinZu GuangChang"}},{"type":"Feature","geometry":{"type":"Point","coordinates":[108.32332948651595,22.815803753819964]},"properties":{"pname":"轨道交通1号线","pshort":"1号线","color":"6CB46B","ls":"900000058314","name":"新民路","en":"XinMin Lu"}},{"type":"Feature","geometry":{"type":"Point","coordinates":[108.316859623384,22.81986547776961]},"properties":{"pname":"轨道交通1号线","pshort":"1号线","color":"6CB46B","ls":"900000058314","name":"朝阳广场","en":"ChaoYang GuangChang"}},{"type":"Feature","geometry":{"type":"Point","coordinates":[108.31236056028737,22.82765191922438]},"properties":{"pname":"轨道交通1号线","pshort":"1号线","color":"6CB46B","ls":"900000058314","name":"火车站","en":"HuoCheZhan"}},{"type":"Feature","geometry":{"type":"Point","coordinates":[108.30319526983642,22.833861651487286]},"properties":{"pname":"轨道交通1号线","pshort":"1号线","color":"6CB46B","ls":"900000058314","name":"白苍岭","en":"BaiCangLing"}},{"type":"Feature","geometry":{"type":"Point","coordinates":[108.28717570871241,22.83442241792873]},"properties":{"pname":"轨道交通1号线","pshort":"1号线","color":"6CB46B","ls":"900000058314","name":"广西大学","en":"GuangXi DaXue"}},{"type":"Feature","geometry":{"type":"Point","coordinates":[108.27908553894596,22.83689801820977]},"properties":{"pname":"轨道交通1号线","pshort":"1号线","color":"6CB46B","ls":"900000058314","name":"鲁班路","en":"LuBan Lu"}},{"type":"Feature","geometry":{"type":"Point","coordinates":[108.26385478124503,22.840639748444016]},"properties":{"pname":"轨道交通1号线","pshort":"1号线","color":"6CB46B","ls":"900000058314","name":"动物园","en":"DongWuYuan"}},{"type":"Feature","geometry":{"type":"Point","coordinates":[108.24920460283252,22.84301044503461]},"properties":{"pname":"轨道交通1号线","pshort":"1号线","color":"6CB46B","ls":"900000058314","name":"清川","en":"QingChuan"}},{"type":"Feature","geometry":{"type":"Point","coordinates":[108.22909030144895,22.8400596620502]},"properties":{"pname":"轨道交通1号线","pshort":"1号线","color":"6CB46B","ls":"900000058314","name":"民族大学","en":"MinZu DaXue"}},{"type":"Feature","geometry":{"type":"Point","coordinates":[108.21521059015629,22.835742464056075]},"properties":{"pname":"轨道交通1号线","pshort":"1号线","color":"6CB46B","ls":"900000058314","name":"西乡塘客运站","en":"XiXiangTang KeYunZhan"}},{"type":"Feature","geometry":{"type":"Point","coordinates":[108.19830752530575,22.83585018708238]},"properties":{"pname":"轨道交通1号线","pshort":"1号线","color":"6CB46B","ls":"900000058314","name":"鹏飞路","en":"PengFei Lu"}},{"type":"Feature","geometry":{"type":"Point","coordinates":[108.18824747587495,22.83590691120589]},"properties":{"pname":"轨道交通1号线","pshort":"1号线","color":"6CB46B","ls":"900000058314","name":"南职院","en":"NanZhiYuan"}},{"type":"Feature","geometry":{"type":"Point","coordinates":[108.17356675681523,22.829280116449123]},"properties":{"pname":"轨道交通1号线","pshort":"1号线","color":"6CB46B","ls":"900000058314","name":"石埠","en":"ShiBu"}},{"type":"Feature","geometry":{"type":"Point","coordinates":[108.29451083861086,22.892052886881565]},"properties":{"pname":"轨道交通2号线","pshort":"2号线","color":"CC0000","ls":"900000060985","name":"西津","en":"XiJin"}},{"type":"Feature","geometry":{"type":"Point","coordinates":[108.29389621820938,22.882544598087087]},"properties":{"pname":"轨道交通2号线","pshort":"2号线","color":"CC0000","ls":"900000060985","name":"安吉客运站","en":"AnJi KeYunZhan"}},{"type":"Feature","geometry":{"type":"Point","coordinates":[108.29560428441765,22.871673341949272]},"properties":{"pname":"轨道交通2号线","pshort":"2号线","color":"CC0000","ls":"900000060985","name":"苏卢","en":"SuLu"}},{"type":"Feature","geometry":{"type":"Point","coordinates":[108.2982887731076,22.860765444247853]},"properties":{"pname":"轨道交通2号线","pshort":"2号线","color":"CC0000","ls":"900000060985","name":"三十三中","en":"SanShiSanZhong"}},{"type":"Feature","geometry":{"type":"Point","coordinates":[108.30272714400881,22.85132787617283]},"properties":{"pname":"轨道交通2号线","pshort":"2号线","color":"CC0000","ls":"900000060985","name":"秀厢","en":"XiuXiang"}},{"type":"Feature","geometry":{"type":"Point","coordinates":[108.30877725909727,22.842014012574797]},"properties":{"pname":"轨道交通2号线","pshort":"2号线","color":"CC0000","ls":"900000060985","name":"明秀路","en":"MingXiu Lu"}},{"type":"Feature","geometry":{"type":"Point","coordinates":[108.30967946816384,22.806964147198574]},"properties":{"pname":"轨道交通2号线","pshort":"2号线","color":"CC0000","ls":"900000060985","name":"南宁剧场","en":"NanNing JuChang"}},{"type":"Feature","geometry":{"type":"Point","coordinates":[108.30732609777347,22.79769051129994]},"properties":{"pname":"轨道交通2号线","pshort":"2号线","color":"CC0000","ls":"900000060985","name":"福建园","en":"FuJianYuan"}},{"type":"Feature","geometry":{"type":"Point","coordinates":[108.30743821152336,22.791697361552277]},"properties":{"pname":"轨道交通2号线","pshort":"2号线","color":"CC0000","ls":"900000060985","name":"亭洪路","en":"TingHong Lu"}},{"type":"Feature","geometry":{"type":"Point","coordinates":[108.30752144686782,22.784319695074718]},"properties":{"pname":"轨道交通2号线","pshort":"2号线","color":"CC0000","ls":"900000060985","name":"石柱岭","en":"ShiZhuLing"}},{"type":"Feature","geometry":{"type":"Point","coordinates":[108.30815710116033,22.769430446840964]},"properties":{"pname":"轨道交通2号线","pshort":"2号线","color":"CC0000","ls":"900000060985","name":"江南客运站","en":"JiangNan KeYunZhan"}},{"type":"Feature","geometry":{"type":"Point","coordinates":[108.31278709076501,22.763610017850837]},"properties":{"pname":"轨道交通2号线","pshort":"2号线","color":"CC0000","ls":"900000060985","name":"大沙田","en":"DaShaTian"}},{"type":"Feature","geometry":{"type":"Point","coordinates":[108.31434568703455,22.754618968685712]},"properties":{"pname":"轨道交通2号线","pshort":"2号线","color":"CC0000","ls":"900000060985","name":"建设路","en":"JianShe Lu"}},{"type":"Feature","geometry":{"type":"Point","coordinates":[108.32038885738946,22.743971928338762]},"properties":{"pname":"轨道交通2号线","pshort":"2号线","color":"CC0000","ls":"900000060985","name":"石子塘","en":"ShiZiTang"}},{"type":"Feature","geometry":{"type":"Point","coordinates":[108.32824418944327,22.734075884968863]},"properties":{"pname":"轨道交通2号线","pshort":"2号线","color":"CC0000","ls":"900000060985","name":"金象","en":"JinXiang"}},{"type":"Feature","geometry":{"type":"Point","coordinates":[108.33264209131653,22.725305985365644]},"properties":{"pname":"轨道交通2号线","pshort":"2号线","color":"CC0000","ls":"900000060985","name":"玉洞","en":"YuDong"}},{"type":"Feature","geometry":{"type":"Point","coordinates":[108.34824881276556,22.722285081556173]},"properties":{"pname":"轨道交通2号线","pshort":"2号线","color":"CC0000","ls":"900000060985","name":"东风路","en":"DongFeng Lu"}},{"type":"Feature","geometry":{"type":"Point","coordinates":[108.35618801053388,22.72426319659716]},"properties":{"pname":"轨道交通2号线","pshort":"2号线","color":"CC0000","ls":"900000060985","name":"玉岭路","en":"YuLing Lu"}},{"type":"Feature","geometry":{"type":"Point","coordinates":[108.36947719667623,22.72767613194027]},"properties":{"pname":"轨道交通2号线","pshort":"2号线","color":"CC0000","ls":"900000060985","name":"那福路","en":"NaFu Lu"}},{"type":"Feature","geometry":{"type":"Point","coordinates":[108.37967573995876,22.729072627202743]},"properties":{"pname":"轨道交通2号线","pshort":"2号线","color":"CC0000","ls":"900000060985","name":"平良立交","en":"PingLiang LiJiao"}},{"type":"Feature","geometry":{"type":"Point","coordinates":[108.38942350269035,22.72902051148603]},"properties":{"pname":"轨道交通2号线","pshort":"2号线","color":"CC0000","ls":"900000060985","name":"坛泽","en":"TanZe"}},{"type":"Feature","geometry":{"type":"Point","coordinates":[108.26538106300828,22.881143265434847]},"properties":{"pname":"轨道交通3号线","pshort":"3号线","color":"96499A","ls":"900000067049","name":"科园大道","en":"KeYuan DaDao"}},{"type":"Feature","geometry":{"type":"Point","coordinates":[108.2799943422001,22.881647816971615]},"properties":{"pname":"轨道交通3号线","pshort":"3号线","color":"96499A","ls":"900000067049","name":"创业路","en":"ChuangYe Lu"}},{"type":"Feature","geometry":{"type":"Point","coordinates":[108.31227608979073,22.87832874619234]},"properties":{"pname":"轨道交通3号线","pshort":"3号线","color":"96499A","ls":"900000067049","name":"北湖北路","en":"BeiHu BeiLu"}},{"type":"Feature","geometry":{"type":"Point","coordinates":[108.32724750125216,22.88095163777577]},"properties":{"pname":"轨道交通3号线","pshort":"3号线","color":"96499A","ls":"900000067049","name":"秀峰路","en":"XiuFeng Lu"}},{"type":"Feature","geometry":{"type":"Point","coordinates":[108.33618627178099,22.87827869667393]},"properties":{"pname":"轨道交通3号线","pshort":"3号线","color":"96499A","ls":"900000067049","name":"邕武路","en":"YongWu Lu"}},{"type":"Feature","geometry":{"type":"Point","coordinates":[108.34692921261663,22.87524418478236]},"properties":{"pname":"轨道交通3号线","pshort":"3号线","color":"96499A","ls":"900000067049","name":"大鸡村","en":"DaJiCun"}},{"type":"Feature","geometry":{"type":"Point","coordinates":[108.35245582998658,22.86719580113811]},"properties":{"pname":"轨道交通3号线","pshort":"3号线","color":"96499A","ls":"900000067049","name":"兴桂路","en":"XingGui Lu"}},{"type":"Feature","geometry":{"type":"Point","coordinates":[108.35208789894905,22.858932621860415]},"properties":{"pname":"轨道交通3号线","pshort":"3号线","color":"96499A","ls":"900000067049","name":"小鸡村","en":"XiaoJiCun"}},{"type":"Feature","geometry":{"type":"Point","coordinates":[108.35077376148837,22.84803601410834]},"properties":{"pname":"轨道交通3号线","pshort":"3号线","color":"96499A","ls":"900000067049","name":"东沟岭","en":"DongGouLing"}},{"type":"Feature","geometry":{"type":"Point","coordinates":[108.3520041110601,22.838559487911734]},"properties":{"pname":"轨道交通3号线","pshort":"3号线","color":"96499A","ls":"900000067049","name":"长堽路","en":"ChangGang Lu"}},{"type":"Feature","geometry":{"type":"Point","coordinates":[108.35595073173874,22.832713155149847]},"properties":{"pname":"轨道交通3号线","pshort":"3号线","color":"96499A","ls":"900000067049","name":"东葛路","en":"DongGe Lu"}},{"type":"Feature","geometry":{"type":"Point","coordinates":[108.36541444698682,22.82759888400994]},"properties":{"pname":"轨道交通3号线","pshort":"3号线","color":"96499A","ls":"900000067049","name":"滨湖路","en":"BinHu Lu"}},{"type":"Feature","geometry":{"type":"Point","coordinates":[108.36203137576257,22.808685474430682]},"properties":{"pname":"轨道交通3号线","pshort":"3号线","color":"96499A","ls":"900000067049","name":"埌西","en":"LangXi"}},{"type":"Feature","geometry":{"type":"Point","coordinates":[108.36011566398764,22.801871706671616]},"properties":{"pname":"轨道交通3号线","pshort":"3号线","color":"96499A","ls":"900000067049","name":"青竹立交","en":"QingZhu LiJiao"}},{"type":"Feature","geometry":{"type":"Point","coordinates":[108.36453839319128,22.795220559856176]},"properties":{"pname":"轨道交通3号线","pshort":"3号线","color":"96499A","ls":"900000067049","name":"青秀山","en":"Qing XiuShan"}},{"type":"Feature","geometry":{"type":"Point","coordinates":[108.37203038549632,22.777802733227645]},"properties":{"pname":"轨道交通3号线","pshort":"3号线","color":"96499A","ls":"900000067049","name":"市博物馆","en":"Shi BoWuGuan"}},{"type":"Feature","geometry":{"type":"Point","coordinates":[108.37218659041241,22.77031397935874]},"properties":{"pname":"轨道交通3号线","pshort":"3号线","color":"96499A","ls":"900000067049","name":"总部基地","en":"ZongBu JiDi"}},{"type":"Feature","geometry":{"type":"Point","coordinates":[108.37373132441988,22.759860519897988]},"properties":{"pname":"轨道交通3号线","pshort":"3号线","color":"96499A","ls":"900000067049","name":"广西规划馆","en":"GuangXi GuiHuaGuan"}},{"type":"Feature","geometry":{"type":"Point","coordinates":[108.37931083111724,22.75294393554166]},"properties":{"pname":"轨道交通3号线","pshort":"3号线","color":"96499A","ls":"900000067049","name":"庆歌路","en":"QingGe Lu"}},{"type":"Feature","geometry":{"type":"Point","coordinates":[108.37972403103927,22.741729924334077]},"properties":{"pname":"轨道交通3号线","pshort":"3号线","color":"96499A","ls":"900000067049","name":"五象湖","en":"WuXiangHu"}},{"type":"Feature","geometry":{"type":"Point","coordinates":[108.23878119548466,22.768177405720266]},"properties":{"pname":"轨道交通4号线","pshort":"4号线","color":"FCD600","ls":"900000073499","name":"洪运路","en":"HongYun Lu"}},{"type":"Feature","geometry":{"type":"Point","coordinates":[108.2549742939955,22.763642478388554]},"properties":{"pname":"轨道交通4号线","pshort":"4号线","color":"FCD600","ls":"900000073499","name":"那历村","en":"NaLiCun"}},{"type":"Feature","geometry":{"type":"Point","coordinates":[108.2670142303482,22.764997137526183]},"properties":{"pname":"轨道交通4号线","pshort":"4号线","color":"FCD600","ls":"900000073499","name":"那洪立交","en":"NaHong LiJiao"}},{"type":"Feature","geometry":{"type":"Point","coordinates":[108.27753775199264,22.76368186694326]},"properties":{"pname":"轨道交通4号线","pshort":"4号线","color":"FCD600","ls":"900000073499","name":"金阳路","en":"JinYang Lu"}},{"type":"Feature","geometry":{"type":"Point","coordinates":[108.2959444593206,22.761370106434896]},"properties":{"pname":"轨道交通4号线","pshort":"4号线","color":"FCD600","ls":"900000073499","name":"通源路","en":"TongYuan Lu"}},{"type":"Feature","geometry":{"type":"Point","coordinates":[108.31920310556673,22.76355316209264]},"properties":{"pname":"轨道交通4号线","pshort":"4号线","color":"FCD600","ls":"900000073499","name":"金象大道","en":"JinXiang DaDao"}},{"type":"Feature","geometry":{"type":"Point","coordinates":[108.33399944880148,22.764034877265967]},"properties":{"pname":"轨道交通4号线","pshort":"4号线","color":"FCD600","ls":"900000073499","name":"五象岭","en":"WuXiangLing"}},{"type":"Feature","geometry":{"type":"Point","coordinates":[108.35692934671528,22.77116092145013]},"properties":{"pname":"轨道交通4号线","pshort":"4号线","color":"FCD600","ls":"900000073499","name":"玉象路","en":"YuXiang Lu"}},{"type":"Feature","geometry":{"type":"Point","coordinates":[108.38214245329578,22.769045415412528]},"properties":{"pname":"轨道交通4号线","pshort":"4号线","color":"FCD600","ls":"900000073499","name":"飞龙路","en":"FeiLong Lu"}},{"type":"Feature","geometry":{"type":"Point","coordinates":[108.38679001496786,22.768342219363014]},"properties":{"pname":"轨道交通4号线","pshort":"4号线","color":"FCD600","ls":"900000073499","name":"体育中心西","en":"TiYu ZhongXin Xi"}},{"type":"Feature","geometry":{"type":"Point","coordinates":[108.39508259230823,22.763450737769354]},"properties":{"pname":"轨道交通4号线","pshort":"4号线","color":"FCD600","ls":"900000073499","name":"体育中心东","en":"TiYu ZhongXin Dong"}},{"type":"Feature","geometry":{"type":"Point","coordinates":[108.40456789077611,22.755911167239496]},"properties":{"pname":"轨道交通4号线","pshort":"4号线","color":"FCD600","ls":"900000073499","name":"良庆大桥南","en":"LiangQing DaQiao Nan"}},{"type":"Feature","geometry":{"type":"Point","coordinates":[108.41256748021642,22.755380592884638]},"properties":{"pname":"轨道交通4号线","pshort":"4号线","color":"FCD600","ls":"900000073499","name":"良庆圩","en":"LiangQingWei"}},{"type":"Feature","geometry":{"type":"Point","coordinates":[108.42445876732275,22.757526621299824]},"properties":{"pname":"轨道交通4号线","pshort":"4号线","color":"FCD600","ls":"900000073499","name":"楞塘村","en":"LengTangCun"}}]}