{"type":"FeatureCollection","features":[{"type":"Feature","geometry":{"type":"Point","coordinates":[108.414091,22.839677]},"properties":{"pname":"轨道交通1号线","pshort":"1号线","color":"6CB46B","ls":"900000058314","name":"火车东站","en":"HuoChe DongZhan"}},{"type":"Feature","geometry":{"type":"Point","coordinates":[108.424884,22.831844]},"properties":{"pname":"轨道交通1号线","pshort":"1号线","color":"6CB46B","ls":"900000058314","name":"佛子岭","en":"FoZiLing"}},{"type":"Feature","geometry":{"type":"Point","coordinates":[108.427946,22.818109]},"properties":{"pname":"轨道交通1号线","pshort":"1号线","color":"6CB46B","ls":"900000058314","name":"百花岭","en":"BaiHuaLing"}},{"type":"Feature","geometry":{"type":"Point","coordinates":[108.418641,22.812921]},"properties":{"pname":"轨道交通1号线","pshort":"1号线","color":"6CB46B","ls":"900000058314","name":"埌东客运站","en":"LangDong KeYunZhan"}},{"type":"Feature","geometry":{"type":"Point","coordinates":[108.410346,22.813119]},"properties":{"pname":"轨道交通1号线","pshort":"1号线","color":"6CB46B","ls":"900000058314","name":"凤岭","en":"FengLing"}},{"type":"Feature","geometry":{"type":"Point","coordinates":[108.399059,22.813064]},"properties":{"pname":"轨道交通1号线","pshort":"1号线","color":"6CB46B","ls":"900000058314","name":"东盟商务区","en":"DongMeng ShangWu Qu"}},{"type":"Feature","geometry":{"type":"Point","coordinates":[108.392022,22.813041]},"properties":{"pname":"轨道交通1号线","pshort":"1号线","color":"6CB46B","ls":"900000058314","name":"万象城","en":"WanXiangCheng"}},{"type":"Feature","geometry":{"type":"Point","coordinates":[108.383728,22.812865]},"properties":{"pname":"轨道交通1号线","pshort":"1号线","color":"6CB46B","ls":"900000058314","name":"会展中心","en":"HuiZhan ZhongXin"}},{"type":"Feature","geometry":{"type":"Point","coordinates":[108.372356,22.812895]},"properties":{"pname":"轨道交通1号线","pshort":"1号线","color":"6CB46B","ls":"900000058314","name":"金湖广场","en":"JinHu GuangChang"}},{"type":"Feature","geometry":{"type":"Point","coordinates":[108.363067,22.813671]},"properties":{"pname":"轨道交通1号线","pshort":"1号线","color":"6CB46B","ls":"900000058314","name":"南湖","en":"NanHu"}},{"type":"Feature","geometry":{"type":"Point","coordinates":[108.347473,22.813014]},"properties":{"pname":"轨道交通1号线","pshort":"1号线","color":"6CB46B","ls":"900000058314","name":"麻村","en":"MaCun"}},{"type":"Feature","geometry":{"type":"Point","coordinates":[108.33635,22.813048]},"properties":{"pname":"轨道交通1号线","pshort":"1号线","color":"6CB46B","ls":"900000058314","name":"民族广场","en":"MinZu GuangChang"}},{"type":"Feature","geometry":{"type":"Point","coordinates":[108.327324,22.813042]},"properties":{"pname":"轨道交通1号线","pshort":"1号线","color":"6CB46B","ls":"900000058314","name":"新民路","en":"XinMin Lu"}},{"type":"Feature","geometry":{"type":"Point","coordinates":[108.320842,22.817093]},"properties":{"pname":"轨道交通1号线","pshort":"1号线","color":"6CB46B","ls":"900000058314","name":"朝阳广场","en":"ChaoYang GuangChang"}},{"type":"Feature","geometry":{"type":"Point","coordinates":[108.316335,22.824874]},"properties":{"pname":"轨道交通1号线","pshort":"1号线","color":"6CB46B","ls":"900000058314","name":"火车站","en":"HuoCheZhan"}},{"type":"Feature","geometry":{"type":"Point","coordinates":[108.307154,22.83107]},"properties":{"pname":"轨道交通1号线","pshort":"1号线","color":"6CB46B","ls":"900000058314","name":"白苍岭","en":"BaiCangLing"}},{"type":"Feature","geometry":{"type":"Point","coordinates":[108.291111,22.831607]},"properties":{"pname":"轨道交通1号线","pshort":"1号线","color":"6CB46B","ls":"900000058314","name":"广西大学","en":"GuangXi DaXue"}},{"type":"Feature","geometry":{"type":"Point","coordinates":[108.283012,22.834074]},"properties":{"pname":"轨道交通1号线","pshort":"1号线","color":"6CB46B","ls":"900000058314","name":"鲁班路","en":"LuBan Lu"}},{"type":"Feature","geometry":{"type":"Point","coordinates":[108.267771,22.837805]},"properties":{"pname":"轨道交通1号线","pshort":"1号线","color":"6CB46B","ls":"900000058314","name":"动物园","en":"DongWuYuan"}},{"type":"Feature","geometry":{"type":"Point","coordinates":[108.253119,22.840172]},"properties":{"pname":"轨道交通1号线","pshort":"1号线","color":"6CB46B","ls":"900000058314","name":"清川","en":"QingChuan"}},{"type":"Feature","geometry":{"type":"Point","coordinates":[108.233018,22.837229]},"properties":{"pname":"轨道交通1号线","pshort":"1号线","color":"6CB46B","ls":"900000058314","name":"民族大学","en":"MinZu DaXue"}},{"type":"Feature","geometry":{"type":"Point","coordinates":[108.219156,22.832924]},"properties":{"pname":"轨道交通1号线","pshort":"1号线","color":"6CB46B","ls":"900000058314","name":"西乡塘客运站","en":"XiXiangTang KeYunZhan"}},{"type":"Feature","geometry":{"type":"Point","coordinates":[108.202283,22.833056]},"properties":{"pname":"轨道交通1号线","pshort":"1号线","color":"6CB46B","ls":"900000058314","name":"鹏飞路","en":"PengFei Lu"}},{"type":"Feature","geometry":{"type":"Point","coordinates":[108.192244,22.83313]},"properties":{"pname":"轨道交通1号线","pshort":"1号线","color":"6CB46B","ls":"900000058314","name":"南职院","en":"NanZhiYuan"}},{"type":"Feature","geometry":{"type":"Point","coordinates":[108.177596,22.826528]},"properties":{"pname":"轨道交通1号线","pshort":"1号线","color":"6CB46B","ls":"900000058314","name":"石埠","en":"ShiBu"}},{"type":"Feature","geometry":{"type":"Point","coordinates":[108.298459,22.88927]},"properties":{"pname":"轨道交通2号线","pshort":"2号线","color":"CC0000","ls":"900000060985","name":"西津","en":"XiJin"}},{"type":"Feature","geometry":{"type":"Point","coordinates":[108.297843,22.879757]},"properties":{"pname":"轨道交通2号线","pshort":"2号线","color":"CC0000","ls":"900000060985","name":"安吉客运站","en":"AnJi KeYunZhan"}},{"type":"Feature","geometry":{"type":"Point","coordinates":[108.299553,22.868884]},"properties":{"pname":"轨道交通2号线","pshort":"2号线","color":"CC0000","ls":"900000060985","name":"苏卢","en":"SuLu"}},{"type":"Feature","geometry":{"type":"Point","coordinates":[108.302241,22.857976]},"properties":{"pname":"轨道交通2号线","pshort":"2号线","color":"CC0000","ls":"900000060985","name":"三十三中","en":"SanShiSanZhong"}},{"type":"Feature","geometry":{"type":"Point","coordinates":[108.306686,22.848542]},"properties":{"pname":"轨道交通2号线","pshort":"2号线","color":"CC0000","ls":"900000060985","name":"秀厢","en":"XiuXiang"}},{"type":"Feature","geometry":{"type":"Point","coordinates":[108.312746,22.839235]},"properties":{"pname":"轨道交通2号线","pshort":"2号线","color":"CC0000","ls":"900000060985","name":"明秀路","en":"MingXiu Lu"}},{"type":"Feature","geometry":{"type":"Point","coordinates":[108.313648,22.804174]},"properties":{"pname":"轨道交通2号线","pshort":"2号线","color":"CC0000","ls":"900000060985","name":"南宁剧场","en":"NanNing JuChang"}},{"type":"Feature","geometry":{"type":"Point","coordinates":[108.31129,22.794893]},"properties":{"pname":"轨道交通2号线","pshort":"2号线","color":"CC0000","ls":"900000060985","name":"福建园","en":"FuJianYuan"}},{"type":"Feature","geometry":{"type":"Point","coordinates":[108.311402,22.788898]},"properties":{"pname":"轨道交通2号线","pshort":"2号线","color":"CC0000","ls":"900000060985","name":"亭洪路","en":"TingHong Lu"}},{"type":"Feature","geometry":{"type":"Point","coordinates":[108.311485,22.781518]},"properties":{"pname":"轨道交通2号线","pshort":"2号线","color":"CC0000","ls":"900000060985","name":"石柱岭","en":"ShiZhuLing"}},{"type":"Feature","geometry":{"type":"Point","coordinates":[108.312121,22.766625]},"properties":{"pname":"轨道交通2号线","pshort":"2号线","color":"CC0000","ls":"900000060985","name":"江南客运站","en":"JiangNan KeYunZhan"}},{"type":"Feature","geometry":{"type":"Point","coordinates":[108.316759,22.760811]},"properties":{"pname":"轨道交通2号线","pshort":"2号线","color":"CC0000","ls":"900000060985","name":"大沙田","en":"DaShaTian"}},{"type":"Feature","geometry":{"type":"Point","coordinates":[108.31832,22.75182]},"properties":{"pname":"轨道交通2号线","pshort":"2号线","color":"CC0000","ls":"900000060985","name":"建设路","en":"JianShe Lu"}},{"type":"Feature","geometry":{"type":"Point","coordinates":[108.324374,22.741181]},"properties":{"pname":"轨道交通2号线","pshort":"2号线","color":"CC0000","ls":"900000060985","name":"石子塘","en":"ShiZiTang"}},{"type":"Feature","geometry":{"type":"Point","coordinates":[108.332244,22.731297]},"properties":{"pname":"轨道交通2号线","pshort":"2号线","color":"CC0000","ls":"900000060985","name":"金象","en":"JinXiang"}},{"type":"Feature","geometry":{"type":"Point","coordinates":[108.33665,22.722533]},"properties":{"pname":"轨道交通2号线","pshort":"2号线","color":"CC0000","ls":"900000060985","name":"玉洞","en":"YuDong"}},{"type":"Feature","geometry":{"type":"Point","coordinates":[108.352286,22.71954]},"properties":{"pname":"轨道交通2号线","pshort":"2号线","color":"CC0000","ls":"900000060985","name":"东风路","en":"DongFeng Lu"}},{"type":"Feature","geometry":{"type":"Point","coordinates":[108.360239,22.721532]},"properties":{"pname":"轨道交通2号线","pshort":"2号线","color":"CC0000","ls":"900000060985","name":"玉岭路","en":"YuLing Lu"}},{"type":"Feature","geometry":{"type":"Point","coordinates":[108.373548,22.724965]},"properties":{"pname":"轨道交通2号线","pshort":"2号线","color":"CC0000","ls":"900000060985","name":"那福路","en":"NaFu Lu"}},{"type":"Feature","geometry":{"type":"Point","coordinates":[108.383758,22.726373]},"properties":{"pname":"轨道交通2号线","pshort":"2号线","color":"CC0000","ls":"900000060985","name":"平良立交","en":"PingLiang LiJiao"}},{"type":"Feature","geometry":{"type":"Point","coordinates":[108.393513,22.726328]},"properties":{"pname":"轨道交通2号线","pshort":"2号线","color":"CC0000","ls":"900000060985","name":"坛泽","en":"TanZe"}},{"type":"Feature","geometry":{"type":"Point","coordinates":[108.2693,22.878325]},"properties":{"pname":"轨道交通3号线","pshort":"3号线","color":"96499A","ls":"900000067049","name":"科园大道","en":"KeYuan DaDao"}},{"type":"Feature","geometry":{"type":"Point","coordinates":[108.283924,22.878842]},"properties":{"pname":"轨道交通3号线","pshort":"3号线","color":"96499A","ls":"900000067049","name":"创业路","en":"ChuangYe Lu"}},{"type":"Feature","geometry":{"type":"Point","coordinates":[108.316253,22.87557]},"properties":{"pname":"轨道交通3号线","pshort":"3号线","color":"96499A","ls":"900000067049","name":"北湖北路","en":"BeiHu BeiLu"}},{"type":"Feature","geometry":{"type":"Point","coordinates":[108.331253,22.878222]},"properties":{"pname":"轨道交通3号线","pshort":"3号线","color":"96499A","ls":"900000067049","name":"秀峰路","en":"XiuFeng Lu"}},{"type":"Feature","geometry":{"type":"Point","coordinates":[108.340209,22.875565]},"properties":{"pname":"轨道交通3号线","pshort":"3号线","color":"96499A","ls":"900000067049","name":"邕武路","en":"YongWu Lu"}},{"type":"Feature","geometry":{"type":"Point","coordinates":[108.350972,22.872549]},"properties":{"pname":"轨道交通3号线","pshort":"3号线","color":"96499A","ls":"900000067049","name":"大鸡村","en":"DaJiCun"}},{"type":"Feature","geometry":{"type":"Point","coordinates":[108.356508,22.864507]},"properties":{"pname":"轨道交通3号线","pshort":"3号线","color":"96499A","ls":"900000067049","name":"兴桂路","en":"XingGui Lu"}},{"type":"Feature","geometry":{"type":"Point","coordinates":[108.356139,22.85624]},"properties":{"pname":"轨道交通3号线","pshort":"3号线","color":"96499A","ls":"900000067049","name":"小鸡村","en":"XiaoJiCun"}},{"type":"Feature","geometry":{"type":"Point","coordinates":[108.354822,22.845337]},"properties":{"pname":"轨道交通3号线","pshort":"3号线","color":"96499A","ls":"900000067049","name":"东沟岭","en":"DongGouLing"}},{"type":"Feature","geometry":{"type":"Point","coordinates":[108.356054,22.835859]},"properties":{"pname":"轨道交通3号线","pshort":"3号线","color":"96499A","ls":"900000067049","name":"长堽路","en":"ChangGang Lu"}},{"type":"Feature","geometry":{"type":"Point","coordinates":[108.360007,22.830017]},"properties":{"pname":"轨道交通3号线","pshort":"3号线","color":"96499A","ls":"900000067049","name":"东葛路","en":"DongGe Lu"}},{"type":"Feature","geometry":{"type":"Point","coordinates":[108.369485,22.824915]},"properties":{"pname":"轨道交通3号线","pshort":"3号线","color":"96499A","ls":"900000067049","name":"滨湖路","en":"BinHu Lu"}},{"type":"Feature","geometry":{"type":"Point","coordinates":[108.366096,22.80599]},"properties":{"pname":"轨道交通3号线","pshort":"3号线","color":"96499A","ls":"900000067049","name":"埌西","en":"LangXi"}},{"type":"Feature","geometry":{"type":"Point","coordinates":[108.364177,22.799171]},"properties":{"pname":"轨道交通3号线","pshort":"3号线","color":"96499A","ls":"900000067049","name":"青竹立交","en":"QingZhu LiJiao"}},{"type":"Feature","geometry":{"type":"Point","coordinates":[108.368606,22.792524]},"properties":{"pname":"轨道交通3号线","pshort":"3号线","color":"96499A","ls":"900000067049","name":"青秀山","en":"Qing XiuShan"}},{"type":"Feature","geometry":{"type":"Point","coordinates":[108.376107,22.77511]},"properties":{"pname":"轨道交通3号线","pshort":"3号线","color":"96499A","ls":"900000067049","name":"市博物馆","en":"Shi BoWuGuan"}},{"type":"Feature","geometry":{"type":"Point","coordinates":[108.376263,22.767619]},"properties":{"pname":"轨道交通3号线","pshort":"3号线","color":"96499A","ls":"900000067049","name":"总部基地","en":"ZongBu JiDi"}},{"type":"Feature","geometry":{"type":"Point","coordinates":[108.377809,22.757164]},"properties":{"pname":"轨道交通3号线","pshort":"3号线","color":"96499A","ls":"900000067049","name":"广西规划馆","en":"GuangXi GuiHuaGuan"}},{"type":"Feature","geometry":{"type":"Point","coordinates":[108.383394,22.750251]},"properties":{"pname":"轨道交通3号线","pshort":"3号线","color":"96499A","ls":"900000067049","name":"庆歌路","en":"QingGe Lu"}},{"type":"Feature","geometry":{"type":"Point","coordinates":[108.383807,22.739034]},"properties":{"pname":"轨道交通3号线","pshort":"3号线","color":"96499A","ls":"900000067049","name":"五象湖","en":"WuXiangHu"}},{"type":"Feature","geometry":{"type":"Point","coordinates":[108.242697,22.765316]},"properties":{"pname":"轨道交通4号线","pshort":"4号线","color":"FCD600","ls":"900000073499","name":"洪运路","en":"HongYun Lu"}},{"type":"Feature","geometry":{"type":"Point","coordinates":[108.258885,22.760778]},"properties":{"pname":"轨道交通4号线","pshort":"4号线","color":"FCD600","ls":"900000073499","name":"那历村","en":"NaLiCun"}},{"type":"Feature","geometry":{"type":"Point","coordinates":[108.270928,22.762138]},"properties":{"pname":"轨道交通4号线","pshort":"4号线","color":"FCD600","ls":"900000073499","name":"那洪立交","en":"NaHong LiJiao"}},{"type":"Feature","geometry":{"type":"Point","coordinates":[108.281459,22.760831]},"properties":{"pname":"轨道交通4号线","pshort":"4号线","color":"FCD600","ls":"900000073499","name":"金阳路","en":"JinYang Lu"}},{"type":"Feature","geometry":{"type":"Point","coordinates":[108.299888,22.758542]},"properties":{"pname":"轨道交通4号线","pshort":"4号线","color":"FCD600","ls":"900000073499","name":"通源路","en":"TongYuan Lu"}},{"type":"Feature","geometry":{"type":"Point","coordinates":[108.323187,22.760766]},"properties":{"pname":"轨道交通4号线","pshort":"4号线","color":"FCD600","ls":"900000073499","name":"金象大道","en":"JinXiang DaDao"}},{"type":"Feature","geometry":{"type":"Point","coordinates":[108.338012,22.761276]},"properties":{"pname":"轨道交通4号线","pshort":"4号线","color":"FCD600","ls":"900000073499","name":"五象岭","en":"WuXiangLing"}},{"type":"Feature","geometry":{"type":"Point","coordinates":[108.360984,22.768445]},"properties":{"pname":"轨道交通4号线","pshort":"4号线","color":"FCD600","ls":"900000073499","name":"玉象路","en":"YuXiang Lu"}},{"type":"Feature","geometry":{"type":"Point","coordinates":[108.386229,22.76636]},"properties":{"pname":"轨道交通4号线","pshort":"4号线","color":"FCD600","ls":"900000073499","name":"飞龙路","en":"FeiLong Lu"}},{"type":"Feature","geometry":{"type":"Point","coordinates":[108.39088,22.76566]},"properties":{"pname":"轨道交通4号线","pshort":"4号线","color":"FCD600","ls":"900000073499","name":"体育中心西","en":"TiYu ZhongXin Xi"}},{"type":"Feature","geometry":{"type":"Point","coordinates":[108.399177,22.760771]},"properties":{"pname":"轨道交通4号线","pshort":"4号线","color":"FCD600","ls":"900000073499","name":"体育中心东","en":"TiYu ZhongXin Dong"}},{"type":"Feature","geometry":{"type":"Point","coordinates":[108.408662,22.75323]},"properties":{"pname":"轨道交通4号线","pshort":"4号线","color":"FCD600","ls":"900000073499","name":"良庆大桥南","en":"LiangQing DaQiao Nan"}},{"type":"Feature","geometry":{"type":"Point","coordinates":[108.416659,22.752697]},"properties":{"pname":"轨道交通4号线","pshort":"4号线","color":"FCD600","ls":"900000073499","name":"良庆圩","en":"LiangQingWei"}},{"type":"Feature","geometry":{"type":"Point","coordinates":[108.428541,22.754835]},"properties":{"pname":"轨道交通4号线","pshort":"4号线","color":"FCD600","ls":"900000073499","name":"楞塘村","en":"LengTangCun"}}]}