{"type":"FeatureCollection","features":[{"type":"Feature","geometry":{"type":"Point","coordinates":[121.85675,29.890445]},"properties":{"pname":"轨道交通1号线","pshort":"1号线","color":"3080B7","ls":"330200021803","name":"霞浦","en":"XiaPu"}},{"type":"Feature","geometry":{"type":"Point","coordinates":[121.843773,29.890703]},"properties":{"pname":"轨道交通1号线","pshort":"1号线","color":"3080B7","ls":"330200021803","name":"长江路","en":"ChangJiang Lu"}},{"type":"Feature","geometry":{"type":"Point","coordinates":[121.829607,29.893725]},"properties":{"pname":"轨道交通1号线","pshort":"1号线","color":"3080B7","ls":"330200021803","name":"中河路","en":"ZhongHe Lu"}},{"type":"Feature","geometry":{"type":"Point","coordinates":[121.808583,29.904204]},"properties":{"pname":"轨道交通1号线","pshort":"1号线","color":"3080B7","ls":"330200021803","name":"松花江路","en":"SongHuaJiang Lu"}},{"type":"Feature","geometry":{"type":"Point","coordinates":[121.794673,29.893302]},"properties":{"pname":"轨道交通1号线","pshort":"1号线","color":"3080B7","ls":"330200021803","name":"大碶","en":"DaQi"}},{"type":"Feature","geometry":{"type":"Point","coordinates":[121.782269,29.874725]},"properties":{"pname":"轨道交通1号线","pshort":"1号线","color":"3080B7","ls":"330200021803","name":"邬隘","en":"WuAi"}},{"type":"Feature","geometry":{"type":"Point","coordinates":[121.733579,29.839346]},"properties":{"pname":"轨道交通1号线","pshort":"1号线","color":"3080B7","ls":"330200021803","name":"宝幢","en":"BaoZhuang"}},{"type":"Feature","geometry":{"type":"Point","coordinates":[121.690153,29.838494]},"properties":{"pname":"轨道交通1号线","pshort":"1号线","color":"3080B7","ls":"330200021803","name":"五乡","en":"WuXiang"}},{"type":"Feature","geometry":{"type":"Point","coordinates":[121.661441,29.846562]},"properties":{"pname":"轨道交通1号线","pshort":"1号线","color":"3080B7","ls":"330200021803","name":"邱隘东","en":"Qiu AiDong"}},{"type":"Feature","geometry":{"type":"Point","coordinates":[121.650587,29.853024]},"properties":{"pname":"轨道交通1号线","pshort":"1号线","color":"3080B7","ls":"330200021803","name":"东环南路","en":"DongHuan NanLu"}},{"type":"Feature","geometry":{"type":"Point","coordinates":[121.636273,29.856445]},"properties":{"pname":"轨道交通1号线","pshort":"1号线","color":"3080B7","ls":"330200021803","name":"盛莫路","en":"ShengMo Lu"}},{"type":"Feature","geometry":{"type":"Point","coordinates":[121.624204,29.858826]},"properties":{"pname":"轨道交通1号线","pshort":"1号线","color":"3080B7","ls":"330200021803","name":"福庆北路","en":"FuQing BeiLu"}},{"type":"Feature","geometry":{"type":"Point","coordinates":[121.614624,29.860234]},"properties":{"pname":"轨道交通1号线","pshort":"1号线","color":"3080B7","ls":"330200021803","name":"海晏北路","en":"HaiYan BeiLu"}},{"type":"Feature","geometry":{"type":"Point","coordinates":[121.602005,29.859027]},"properties":{"pname":"轨道交通1号线","pshort":"1号线","color":"3080B7","ls":"330200021803","name":"世纪大道","en":"ShiJi DaDao"}},{"type":"Feature","geometry":{"type":"Point","coordinates":[121.593092,29.86098]},"properties":{"pname":"轨道交通1号线","pshort":"1号线","color":"3080B7","ls":"330200021803","name":"福明路","en":"FuMing Lu"}},{"type":"Feature","geometry":{"type":"Point","coordinates":[121.581421,29.864427]},"properties":{"pname":"轨道交通1号线","pshort":"1号线","color":"3080B7","ls":"330200021803","name":"樱花公园","en":"YingHua GongYuan"}},{"type":"Feature","geometry":{"type":"Point","coordinates":[121.574006,29.867239]},"properties":{"pname":"轨道交通1号线","pshort":"1号线","color":"3080B7","ls":"330200021803","name":"舟孟北路","en":"ZhouMeng BeiLu"}},{"type":"Feature","geometry":{"type":"Point","coordinates":[121.565095,29.86941]},"properties":{"pname":"轨道交通1号线","pshort":"1号线","color":"3080B7","ls":"330200021803","name":"江厦桥东","en":"JiangXia QiaoDong"}},{"type":"Feature","geometry":{"type":"Point","coordinates":[121.555432,29.871481]},"properties":{"pname":"轨道交通1号线","pshort":"1号线","color":"3080B7","ls":"330200021803","name":"东门口","en":"DongMenKou"}},{"type":"Feature","geometry":{"type":"Point","coordinates":[121.54897,29.873914]},"properties":{"pname":"轨道交通1号线","pshort":"1号线","color":"3080B7","ls":"330200021803","name":"鼓楼","en":"GuLou"}},{"type":"Feature","geometry":{"type":"Point","coordinates":[121.539928,29.874847]},"properties":{"pname":"轨道交通1号线","pshort":"1号线","color":"3080B7","ls":"330200021803","name":"西门口","en":"XiMenKou"}},{"type":"Feature","geometry":{"type":"Point","coordinates":[121.53188,29.876588]},"properties":{"pname":"轨道交通1号线","pshort":"1号线","color":"3080B7","ls":"330200021803","name":"大卿桥","en":"DaQing Qiao"}},{"type":"Feature","geometry":{"type":"Point","coordinates":[121.521148,29.87863]},"properties":{"pname":"轨道交通1号线","pshort":"1号线","color":"3080B7","ls":"330200021803","name":"泽民","en":"ZeMin"}},{"type":"Feature","geometry":{"type":"Point","coordinates":[121.508874,29.881923]},"properties":{"pname":"轨道交通1号线","pshort":"1号线","color":"3080B7","ls":"330200021803","name":"望春桥","en":"WangChun Qiao"}},{"type":"Feature","geometry":{"type":"Point","coordinates":[121.496877,29.887631]},"properties":{"pname":"轨道交通1号线","pshort":"1号线","color":"3080B7","ls":"330200021803","name":"徐家漕长乐","en":"XuJiaCao ChangLe"}},{"type":"Feature","geometry":{"type":"Point","coordinates":[121.487283,29.89034]},"properties":{"pname":"轨道交通1号线","pshort":"1号线","color":"3080B7","ls":"330200021803","name":"芦港","en":"LuGang"}},{"type":"Feature","geometry":{"type":"Point","coordinates":[121.476733,29.89488]},"properties":{"pname":"轨道交通1号线","pshort":"1号线","color":"3080B7","ls":"330200021803","name":"梁祝","en":"LiangZhu"}},{"type":"Feature","geometry":{"type":"Point","coordinates":[121.464107,29.901488]},"properties":{"pname":"轨道交通1号线","pshort":"1号线","color":"3080B7","ls":"330200021803","name":"高桥","en":"GaoQiao"}},{"type":"Feature","geometry":{"type":"Point","coordinates":[121.453556,29.910802]},"properties":{"pname":"轨道交通1号线","pshort":"1号线","color":"3080B7","ls":"330200021803","name":"高桥西","en":"Gao QiaoXi"}},{"type":"Feature","geometry":{"type":"Point","coordinates":[121.461371,29.817786]},"properties":{"pname":"轨道交通2号线","pshort":"2号线","color":"CC0000","ls":"330200021780","name":"栎社国际机场","en":"LiShe GuoJi JiChang"}},{"type":"Feature","geometry":{"type":"Point","coordinates":[121.483496,29.809483]},"properties":{"pname":"轨道交通2号线","pshort":"2号线","color":"CC0000","ls":"330200021780","name":"栎社","en":"LiShe"}},{"type":"Feature","geometry":{"type":"Point","coordinates":[121.496395,29.818439]},"properties":{"pname":"轨道交通2号线","pshort":"2号线","color":"CC0000","ls":"330200021780","name":"鄞州大道","en":"YinZhou DaDao"}},{"type":"Feature","geometry":{"type":"Point","coordinates":[121.504304,29.825732]},"properties":{"pname":"轨道交通2号线","pshort":"2号线","color":"CC0000","ls":"330200021780","name":"石碶","en":"ShiQi"}},{"type":"Feature","geometry":{"type":"Point","coordinates":[121.514326,29.8315]},"properties":{"pname":"轨道交通2号线","pshort":"2号线","color":"CC0000","ls":"330200021780","name":"轻纺城","en":"QingFangCheng"}},{"type":"Feature","geometry":{"type":"Point","coordinates":[121.512768,29.841524]},"properties":{"pname":"轨道交通2号线","pshort":"2号线","color":"CC0000","ls":"330200021780","name":"藕池","en":"OuChi"}},{"type":"Feature","geometry":{"type":"Point","coordinates":[121.512386,29.850722]},"properties":{"pname":"轨道交通2号线","pshort":"2号线","color":"CC0000","ls":"330200021780","name":"客运中心","en":"KeYun ZhongXin"}},{"type":"Feature","geometry":{"type":"Point","coordinates":[121.517716,29.858133]},"properties":{"pname":"轨道交通2号线","pshort":"2号线","color":"CC0000","ls":"330200021780","name":"丽园南路","en":"LiYuan NanLu"}},{"type":"Feature","geometry":{"type":"Point","coordinates":[121.526364,29.858542]},"properties":{"pname":"轨道交通2号线","pshort":"2号线","color":"CC0000","ls":"330200021780","name":"云霞路","en":"YunXia Lu"}},{"type":"Feature","geometry":{"type":"Point","coordinates":[121.537022,29.862141]},"properties":{"pname":"轨道交通2号线","pshort":"2号线","color":"CC0000","ls":"330200021780","name":"宁波火车站","en":"NingBo HuoCheZhan"}},{"type":"Feature","geometry":{"type":"Point","coordinates":[121.548778,29.867124]},"properties":{"pname":"轨道交通2号线","pshort":"2号线","color":"CC0000","ls":"330200021780","name":"城隍庙","en":"ChengHuangMiao"}},{"type":"Feature","geometry":{"type":"Point","coordinates":[121.558811,29.882812]},"properties":{"pname":"轨道交通2号线","pshort":"2号线","color":"CC0000","ls":"330200021780","name":"外滩大桥","en":"WaiTan DaQiao"}},{"type":"Feature","geometry":{"type":"Point","coordinates":[121.562039,29.889763]},"properties":{"pname":"轨道交通2号线","pshort":"2号线","color":"CC0000","ls":"330200021780","name":"正大路","en":"ZhengDa Lu"}},{"type":"Feature","geometry":{"type":"Point","coordinates":[121.566719,29.898239]},"properties":{"pname":"轨道交通2号线","pshort":"2号线","color":"CC0000","ls":"330200021780","name":"倪家堰","en":"NiJiaYan"}},{"type":"Feature","geometry":{"type":"Point","coordinates":[121.575493,29.903443]},"properties":{"pname":"轨道交通2号线","pshort":"2号线","color":"CC0000","ls":"330200021780","name":"压赛堰","en":"YaSaiYan"}},{"type":"Feature","geometry":{"type":"Point","coordinates":[121.581424,29.903762]},"properties":{"pname":"轨道交通2号线","pshort":"2号线","color":"CC0000","ls":"330200021780","name":"大通桥","en":"DaTong Qiao"}},{"type":"Feature","geometry":{"type":"Point","coordinates":[121.592313,29.904137]},"properties":{"pname":"轨道交通2号线","pshort":"2号线","color":"CC0000","ls":"330200021780","name":"孔浦","en":"KongPu"}},{"type":"Feature","geometry":{"type":"Point","coordinates":[121.612425,29.908967]},"properties":{"pname":"轨道交通2号线","pshort":"2号线","color":"CC0000","ls":"330200021780","name":"路林","en":"Lu Lin"}},{"type":"Feature","geometry":{"type":"Point","coordinates":[121.620865,29.911651]},"properties":{"pname":"轨道交通2号线","pshort":"2号线","color":"CC0000","ls":"330200021780","name":"三官堂","en":"SanGuanTang"}},{"type":"Feature","geometry":{"type":"Point","coordinates":[121.634428,29.911594]},"properties":{"pname":"轨道交通2号线","pshort":"2号线","color":"CC0000","ls":"330200021780","name":"宁波大学","en":"NingBo DaXue"}},{"type":"Feature","geometry":{"type":"Point","coordinates":[121.660928,29.921765]},"properties":{"pname":"轨道交通2号线","pshort":"2号线","color":"CC0000","ls":"330200021780","name":"清水浦","en":"QingShuiPu"}},{"type":"Feature","geometry":{"type":"Point","coordinates":[121.677461,29.938232]},"properties":{"pname":"轨道交通2号线","pshort":"2号线","color":"CC0000","ls":"330200021780","name":"五里牌","en":"WuLiPai"}},{"type":"Feature","geometry":{"type":"Point","coordinates":[121.693489,29.949831]},"properties":{"pname":"轨道交通2号线","pshort":"2号线","color":"CC0000","ls":"330200021780","name":"枫园","en":"FengYuan"}},{"type":"Feature","geometry":{"type":"Point","coordinates":[121.70525,29.951084]},"properties":{"pname":"轨道交通2号线","pshort":"2号线","color":"CC0000","ls":"330200021780","name":"聪园路","en":"CongYuan Lu"}},{"type":"Feature","geometry":{"type":"Point","coordinates":[121.587855,29.890126]},"properties":{"pname":"轨道交通3号线(宁奉城际)","pshort":"3号线/宁奉城际","color":"FFC04C","ls":"900000067955","name":"中兴大桥南","en":"ZhongXing DaQiao Nan"}},{"type":"Feature","geometry":{"type":"Point","coordinates":[121.589196,29.879741]},"properties":{"pname":"轨道交通3号线(宁奉城际)","pshort":"3号线/宁奉城际","color":"FFC04C","ls":"900000067955","name":"明楼","en":"MingLou"}},{"type":"Feature","geometry":{"type":"Point","coordinates":[121.585329,29.871762]},"properties":{"pname":"轨道交通3号线(宁奉城际)","pshort":"3号线/宁奉城际","color":"FFC04C","ls":"900000067955","name":"体育馆","en":"TiYuGuan"}},{"type":"Feature","geometry":{"type":"Point","coordinates":[121.578385,29.85316]},"properties":{"pname":"轨道交通3号线(宁奉城际)","pshort":"3号线/宁奉城际","color":"FFC04C","ls":"900000067955","name":"儿童公园","en":"ErTong GongYuan"}},{"type":"Feature","geometry":{"type":"Point","coordinates":[121.575632,29.84514]},"properties":{"pname":"轨道交通3号线(宁奉城际)","pshort":"3号线/宁奉城际","color":"FFC04C","ls":"900000067955","name":"仇毕","en":"ChouBi"}},{"type":"Feature","geometry":{"type":"Point","coordinates":[121.566089,29.835373]},"properties":{"pname":"轨道交通3号线(宁奉城际)","pshort":"3号线/宁奉城际","color":"FFC04C","ls":"900000067955","name":"钱湖北路","en":"QianHu BeiLu"}},{"type":"Feature","geometry":{"type":"Point","coordinates":[121.555692,29.833727]},"properties":{"pname":"轨道交通3号线(宁奉城际)","pshort":"3号线/宁奉城际","color":"FFC04C","ls":"900000067955","name":"锦寓路","en":"JinYu Lu"}},{"type":"Feature","geometry":{"type":"Point","coordinates":[121.550882,29.827839]},"properties":{"pname":"轨道交通3号线(宁奉城际)","pshort":"3号线/宁奉城际","color":"FFC04C","ls":"900000067955","name":"四明中路","en":"SiMing ZhongLu"}},{"type":"Feature","geometry":{"type":"Point","coordinates":[121.550431,29.818812]},"properties":{"pname":"轨道交通3号线(宁奉城际)","pshort":"3号线/宁奉城际","color":"FFC04C","ls":"900000067955","name":"鄞州区政府","en":"YinZhouQu ZhengFu"}},{"type":"Feature","geometry":{"type":"Point","coordinates":[121.549225,29.806873]},"properties":{"pname":"轨道交通3号线(宁奉城际)","pshort":"3号线/宁奉城际","color":"FFC04C","ls":"900000067955","name":"南部商务区","en":"NanBu ShangWu Qu"}},{"type":"Feature","geometry":{"type":"Point","coordinates":[121.54165,29.8009]},"properties":{"pname":"轨道交通3号线(宁奉城际)","pshort":"3号线/宁奉城际","color":"FFC04C","ls":"900000067955","name":"鄞州客运总站","en":"YinZhou KeYun ZongZhan"}},{"type":"Feature","geometry":{"type":"Point","coordinates":[121.531402,29.796846]},"properties":{"pname":"轨道交通3号线(宁奉城际)","pshort":"3号线/宁奉城际","color":"FFC04C","ls":"900000067955","name":"句章路","en":"GouZhang Lu"}},{"type":"Feature","geometry":{"type":"Point","coordinates":[121.529558,29.789544]},"properties":{"pname":"轨道交通3号线(宁奉城际)","pshort":"3号线/宁奉城际","color":"FFC04C","ls":"900000067955","name":"高塘桥","en":"GaoTang Qiao"}},{"type":"Feature","geometry":{"type":"Point","coordinates":[121.527543,29.770623]},"properties":{"pname":"轨道交通3号线(宁奉城际)","pshort":"3号线/宁奉城际","color":"FFC04C","ls":"900000067955","name":"姜山","en":"Jiang Shan"}},{"type":"Feature","geometry":{"type":"Point","coordinates":[121.519014,29.763928]},"properties":{"pname":"轨道交通3号线(宁奉城际)","pshort":"3号线/宁奉城际","color":"FFC04C","ls":"900000067955","name":"狮山","en":"ShiShan"}},{"type":"Feature","geometry":{"type":"Point","coordinates":[121.505396,29.764278]},"properties":{"pname":"轨道交通3号线(宁奉城际)","pshort":"3号线/宁奉城际","color":"FFC04C","ls":"900000067955","name":"明辉路","en":"MingHui Lu"}},{"type":"Feature","geometry":{"type":"Point","coordinates":[121.488964,29.765047]},"properties":{"pname":"轨道交通3号线(宁奉城际)","pshort":"3号线/宁奉城际","color":"FFC04C","ls":"900000067955","name":"朝阳","en":"ChaoYang"}},{"type":"Feature","geometry":{"type":"Point","coordinates":[121.452395,29.745643]},"properties":{"pname":"轨道交通3号线(宁奉城际)","pshort":"3号线/宁奉城际","color":"FFC04C","ls":"900000067955","name":"方桥","en":"FangQiao"}},{"type":"Feature","geometry":{"type":"Point","coordinates":[121.448437,29.722085]},"properties":{"pname":"轨道交通3号线(宁奉城际)","pshort":"3号线/宁奉城际","color":"FFC04C","ls":"900000067955","name":"琎琳","en":"JinLin"}},{"type":"Feature","geometry":{"type":"Point","coordinates":[121.447341,29.708642]},"properties":{"pname":"轨道交通3号线(宁奉城际)","pshort":"3号线/宁奉城际","color":"FFC04C","ls":"900000067955","name":"南渡","en":"NanDu"}},{"type":"Feature","geometry":{"type":"Point","coordinates":[121.449564,29.672472]},"properties":{"pname":"轨道交通3号线(宁奉城际)","pshort":"3号线/宁奉城际","color":"FFC04C","ls":"900000067955","name":"大成东路","en":"DaCheng DongLu"}},{"type":"Feature","geometry":{"type":"Point","coordinates":[121.449288,29.651501]},"properties":{"pname":"轨道交通3号线(宁奉城际)","pshort":"3号线/宁奉城际","color":"FFC04C","ls":"900000067955","name":"金海路","en":"JinHai Lu"}}]}