{"type":"FeatureCollection","features":[{"type":"Feature","geometry":{"type":"Point","coordinates":[121.85267879282213,29.89302710996624]},"properties":{"pname":"轨道交通1号线","pshort":"1号线","color":"3080B7","ls":"330200021803","name":"霞浦","en":"XiaPu"}},{"type":"Feature","geometry":{"type":"Point","coordinates":[121.83967067862989,29.893262302814428]},"properties":{"pname":"轨道交通1号线","pshort":"1号线","color":"3080B7","ls":"330200021803","name":"长江路","en":"ChangJiang Lu"}},{"type":"Feature","geometry":{"type":"Point","coordinates":[121.82546860690168,29.89625757490086]},"properties":{"pname":"轨道交通1号线","pshort":"1号线","color":"3080B7","ls":"330200021803","name":"中河路","en":"ZhongHe Lu"}},{"type":"Feature","geometry":{"type":"Point","coordinates":[121.8043923509947,29.9066980667543]},"properties":{"pname":"轨道交通1号线","pshort":"1号线","color":"3080B7","ls":"330200021803","name":"松花江路","en":"SongHuaJiang Lu"}},{"type":"Feature","geometry":{"type":"Point","coordinates":[121.79045377089692,29.895775266990796]},"properties":{"pname":"轨道交通1号线","pshort":"1号线","color":"3080B7","ls":"330200021803","name":"大碶","en":"DaQi"}},{"type":"Feature","geometry":{"type":"Point","coordinates":[121.77802995604462,29.877184502170945]},"properties":{"pname":"轨道交通1号线","pshort":"1号线","color":"3080B7","ls":"330200021803","name":"邬隘","en":"WuAi"}},{"type":"Feature","geometry":{"type":"Point","coordinates":[121.72931968790962,29.84180204727473]},"properties":{"pname":"轨道交通1号线","pshort":"1号线","color":"3080B7","ls":"330200021803","name":"宝幢","en":"BaoZhuang"}},{"type":"Feature","geometry":{"type":"Point","coordinates":[121.68594992240965,29.841010611762407]},"properties":{"pname":"轨道交通1号线","pshort":"1号线","color":"3080B7","ls":"330200021803","name":"五乡","en":"WuXiang"}},{"type":"Feature","geometry":{"type":"Point","coordinates":[121.65729136853858,29.8491320543737]},"properties":{"pname":"轨道交通1号线","pshort":"1号线","color":"3080B7","ls":"330200021803","name":"邱隘东","en":"Qiu AiDong"}},{"type":"Feature","geometry":{"type":"Point","coordinates":[121.64645581785804,29.85561257098656]},"properties":{"pname":"轨道交通1号线","pshort":"1号线","color":"3080B7","ls":"330200021803","name":"东环南路","en":"DongHuan NanLu"}},{"type":"Feature","geometry":{"type":"Point","coordinates":[121.63216250919642,29.85905470976717]},"properties":{"pname":"轨道交通1号线","pshort":"1号线","color":"3080B7","ls":"330200021803","name":"盛莫路","en":"ShengMo Lu"}},{"type":"Feature","geometry":{"type":"Point","coordinates":[121.6201059011068,29.861449008264316]},"properties":{"pname":"轨道交通1号线","pshort":"1号线","color":"3080B7","ls":"330200021803","name":"福庆北路","en":"FuQing BeiLu"}},{"type":"Feature","geometry":{"type":"Point","coordinates":[121.6105316467775,29.86286391752415]},"properties":{"pname":"轨道交通1号线","pshort":"1号线","color":"3080B7","ls":"330200021803","name":"海晏北路","en":"HaiYan BeiLu"}},{"type":"Feature","geometry":{"type":"Point","coordinates":[121.59791469118252,29.861660321539805]},"properties":{"pname":"轨道交通1号线","pshort":"1号线","color":"3080B7","ls":"330200021803","name":"世纪大道","en":"ShiJi DaDao"}},{"type":"Feature","geometry":{"type":"Point","coordinates":[121.5889971864988,29.863611770153064]},"properties":{"pname":"轨道交通1号线","pshort":"1号线","color":"3080B7","ls":"330200021803","name":"福明路","en":"FuMing Lu"}},{"type":"Feature","geometry":{"type":"Point","coordinates":[121.5773149241142,29.86705097383221]},"properties":{"pname":"轨道交通1号线","pshort":"1号线","color":"3080B7","ls":"330200021803","name":"樱花公园","en":"YingHua GongYuan"}},{"type":"Feature","geometry":{"type":"Point","coordinates":[121.56988914692162,29.869854812864777]},"properties":{"pname":"轨道交通1号线","pshort":"1号线","color":"3080B7","ls":"330200021803","name":"舟孟北路","en":"ZhouMeng BeiLu"}},{"type":"Feature","geometry":{"type":"Point","coordinates":[121.56096174087835,29.872012928936645]},"properties":{"pname":"轨道交通1号线","pshort":"1号线","color":"3080B7","ls":"330200021803","name":"江厦桥东","en":"JiangXia QiaoDong"}},{"type":"Feature","geometry":{"type":"Point","coordinates":[121.55127685886279,29.874066315872145]},"properties":{"pname":"轨道交通1号线","pshort":"1号线","color":"3080B7","ls":"330200021803","name":"东门口","en":"DongMenKou"}},{"type":"Feature","geometry":{"type":"Point","coordinates":[121.54479795942947,29.87648553097505]},"properties":{"pname":"轨道交通1号线","pshort":"1号线","color":"3080B7","ls":"330200021803","name":"鼓楼","en":"GuLou"}},{"type":"Feature","geometry":{"type":"Point","coordinates":[121.53572992625986,29.877397076110753]},"properties":{"pname":"轨道交通1号线","pshort":"1号线","color":"3080B7","ls":"330200021803","name":"西门口","en":"XiMenKou"}},{"type":"Feature","geometry":{"type":"Point","coordinates":[121.52765653156251,29.87911699471386]},"properties":{"pname":"轨道交通1号线","pshort":"1号线","color":"3080B7","ls":"330200021803","name":"大卿桥","en":"DaQing Qiao"}},{"type":"Feature","geometry":{"type":"Point","coordinates":[121.51688829202014,29.881128723063938]},"properties":{"pname":"轨道交通1号线","pshort":"1号线","color":"3080B7","ls":"330200021803","name":"泽民","en":"ZeMin"}},{"type":"Feature","geometry":{"type":"Point","coordinates":[121.50457071106321,29.88438513738937]},"properties":{"pname":"轨道交通1号线","pshort":"1号线","color":"3080B7","ls":"330200021803","name":"望春桥","en":"WangChun Qiao"}},{"type":"Feature","geometry":{"type":"Point","coordinates":[121.49253039913354,29.89005668328563]},"properties":{"pname":"轨道交通1号线","pshort":"1号线","color":"3080B7","ls":"330200021803","name":"徐家漕长乐","en":"XuJiaCao ChangLe"}},{"type":"Feature","geometry":{"type":"Point","coordinates":[121.48290267902614,29.892737210303736]},"properties":{"pname":"轨道交通1号线","pshort":"1号线","color":"3080B7","ls":"330200021803","name":"芦港","en":"LuGang"}},{"type":"Feature","geometry":{"type":"Point","coordinates":[121.47231733090136,29.897247359544036]},"properties":{"pname":"轨道交通1号线","pshort":"1号线","color":"3080B7","ls":"330200021803","name":"梁祝","en":"LiangZhu"}},{"type":"Feature","geometry":{"type":"Point","coordinates":[121.45965289313175,29.90382292426752]},"properties":{"pname":"轨道交通1号线","pshort":"1号线","color":"3080B7","ls":"330200021803","name":"高桥","en":"GaoQiao"}},{"type":"Feature","geometry":{"type":"Point","coordinates":[121.44907383836178,29.913113396965745]},"properties":{"pname":"轨道交通1号线","pshort":"1号线","color":"3080B7","ls":"330200021803","name":"高桥西","en":"Gao QiaoXi"}},{"type":"Feature","geometry":{"type":"Point","coordinates":[121.45691629279543,29.820120207887648]},"properties":{"pname":"轨道交通2号线","pshort":"2号线","color":"CC0000","ls":"330200021780","name":"栎社国际机场","en":"LiShe GuoJi JiChang"}},{"type":"Feature","geometry":{"type":"Point","coordinates":[121.47910945916615,29.81187529692426]},"properties":{"pname":"轨道交通2号线","pshort":"2号线","color":"CC0000","ls":"330200021780","name":"栎社","en":"LiShe"}},{"type":"Feature","geometry":{"type":"Point","coordinates":[121.4920523205056,29.820868178049118]},"properties":{"pname":"轨道交通2号线","pshort":"2号线","color":"CC0000","ls":"330200021780","name":"鄞州大道","en":"YinZhou DaDao"}},{"type":"Feature","geometry":{"type":"Point","coordinates":[121.49998891311763,29.828184319554584]},"properties":{"pname":"轨道交通2号线","pshort":"2号线","color":"CC0000","ls":"330200021780","name":"石碶","en":"ShiQi"}},{"type":"Feature","geometry":{"type":"Point","coordinates":[121.5100461923069,29.833981937332883]},"properties":{"pname":"轨道交通2号线","pshort":"2号线","color":"CC0000","ls":"330200021780","name":"轻纺城","en":"QingFangCheng"}},{"type":"Feature","geometry":{"type":"Point","coordinates":[121.5084818585778,29.844000468283916]},"properties":{"pname":"轨道交通2号线","pshort":"2号线","color":"CC0000","ls":"330200021780","name":"藕池","en":"OuChi"}},{"type":"Feature","geometry":{"type":"Point","coordinates":[121.50809775807971,29.853196633255337]},"properties":{"pname":"轨道交通2号线","pshort":"2号线","color":"CC0000","ls":"330200021780","name":"客运中心","en":"KeYun ZhongXin"}},{"type":"Feature","geometry":{"type":"Point","coordinates":[121.51344598844825,29.86062294588693]},"properties":{"pname":"轨道交通2号线","pshort":"2号线","color":"CC0000","ls":"330200021780","name":"丽园南路","en":"LiYuan NanLu"}},{"type":"Feature","geometry":{"type":"Point","coordinates":[121.52212372625982,29.861056869535005]},"properties":{"pname":"轨道交通2号线","pshort":"2号线","color":"CC0000","ls":"330200021780","name":"云霞路","en":"YunXia Lu"}},{"type":"Feature","geometry":{"type":"Point","coordinates":[121.53281603445706,29.864684466029956]},"properties":{"pname":"轨道交通2号线","pshort":"2号线","color":"CC0000","ls":"330200021780","name":"宁波火车站","en":"NingBo HuoCheZhan"}},{"type":"Feature","geometry":{"type":"Point","coordinates":[121.54460597913256,29.869695509729922]},"properties":{"pname":"轨道交通2号线","pshort":"2号线","color":"CC0000","ls":"330200021780","name":"城隍庙","en":"ChengHuangMiao"}},{"type":"Feature","geometry":{"type":"Point","coordinates":[121.55466301682019,29.88540321023484]},"properties":{"pname":"轨道交通2号线","pshort":"2号线","color":"CC0000","ls":"330200021780","name":"外滩大桥","en":"WaiTan DaQiao"}},{"type":"Feature","geometry":{"type":"Point","coordinates":[121.55789770374331,29.89235968333381]},"properties":{"pname":"轨道交通2号线","pshort":"2号线","color":"CC0000","ls":"330200021780","name":"正大路","en":"ZhengDa Lu"}},{"type":"Feature","geometry":{"type":"Point","coordinates":[121.56258669560304,29.90084299385605]},"properties":{"pname":"轨道交通2号线","pshort":"2号线","color":"CC0000","ls":"330200021780","name":"倪家堰","en":"NiJiaYan"}},{"type":"Feature","geometry":{"type":"Point","coordinates":[121.57137562049442,29.90605874316424]},"properties":{"pname":"轨道交通2号线","pshort":"2号线","color":"CC0000","ls":"330200021780","name":"压赛堰","en":"YaSaiYan"}},{"type":"Feature","geometry":{"type":"Point","coordinates":[121.57731482218158,29.906383922325983]},"properties":{"pname":"轨道交通2号线","pshort":"2号线","color":"CC0000","ls":"330200021780","name":"大通桥","en":"DaTong Qiao"}},{"type":"Feature","geometry":{"type":"Point","coordinates":[121.58821426736819,29.906766165443134]},"properties":{"pname":"轨道交通2号线","pshort":"2号线","color":"CC0000","ls":"330200021780","name":"孔浦","en":"KongPu"}},{"type":"Feature","geometry":{"type":"Point","coordinates":[121.60832958402159,29.91159548389572]},"properties":{"pname":"轨道交通2号线","pshort":"2号线","color":"CC0000","ls":"330200021780","name":"路林","en":"Lu Lin"}},{"type":"Feature","geometry":{"type":"Point","coordinates":[121.61676522742177,29.91427411515825]},"properties":{"pname":"轨道交通2号线","pshort":"2号线","color":"CC0000","ls":"330200021780","name":"三官堂","en":"SanGuanTang"}},{"type":"Feature","geometry":{"type":"Point","coordinates":[121.63031542182448,29.91420318158944]},"properties":{"pname":"轨道交通2号线","pshort":"2号线","color":"CC0000","ls":"330200021780","name":"宁波大学","en":"NingBo DaXue"}},{"type":"Feature","geometry":{"type":"Point","coordinates":[121.65677334736895,29.92433203117741]},"properties":{"pname":"轨道交通2号线","pshort":"2号线","color":"CC0000","ls":"330200021780","name":"清水浦","en":"QingShuiPu"}},{"type":"Feature","geometry":{"type":"Point","coordinates":[121.67327378785181,29.94076740594662]},"properties":{"pname":"轨道交通2号线","pshort":"2号线","color":"CC0000","ls":"330200021780","name":"五里牌","en":"WuLiPai"}},{"type":"Feature","geometry":{"type":"Point","coordinates":[121.68927104890312,29.952336176942367]},"properties":{"pname":"轨道交通2号线","pshort":"2号线","color":"CC0000","ls":"330200021780","name":"枫园","en":"FengYuan"}},{"type":"Feature","geometry":{"type":"Point","coordinates":[121.70101246259111,29.95356915152996]},"properties":{"pname":"轨道交通2号线","pshort":"2号线","color":"CC0000","ls":"330200021780","name":"聪园路","en":"CongYuan Lu"}},{"type":"Feature","geometry":{"type":"Point","coordinates":[121.58375381375188,29.892753474113377]},"properties":{"pname":"轨道交通3号线(宁奉城际)","pshort":"3号线/宁奉城际","color":"FFC04C","ls":"900000067955","name":"中兴大桥南","en":"ZhongXing DaQiao Nan"}},{"type":"Feature","geometry":{"type":"Point","coordinates":[121.58509680945537,29.882369803026638]},"properties":{"pname":"轨道交通3号线(宁奉城际)","pshort":"3号线/宁奉城际","color":"FFC04C","ls":"900000067955","name":"明楼","en":"MingLou"}},{"type":"Feature","geometry":{"type":"Point","coordinates":[121.58122679705612,29.874388746115372]},"properties":{"pname":"轨道交通3号线(宁奉城际)","pshort":"3号线/宁奉城际","color":"FFC04C","ls":"900000067955","name":"体育馆","en":"TiYuGuan"}},{"type":"Feature","geometry":{"type":"Point","coordinates":[121.57427582332808,29.85578175286123]},"properties":{"pname":"轨道交通3号线(宁奉城际)","pshort":"3号线/宁奉城际","color":"FFC04C","ls":"900000067955","name":"儿童公园","en":"ErTong GongYuan"}},{"type":"Feature","geometry":{"type":"Point","coordinates":[121.57151944059316,29.847759287960468]},"properties":{"pname":"轨道交通3号线(宁奉城际)","pshort":"3号线/宁奉城际","color":"FFC04C","ls":"900000067955","name":"仇毕","en":"ChouBi"}},{"type":"Feature","geometry":{"type":"Point","coordinates":[121.56196043192391,29.83797993926277]},"properties":{"pname":"轨道交通3号线(宁奉城际)","pshort":"3号线/宁奉城际","color":"FFC04C","ls":"900000067955","name":"钱湖北路","en":"QianHu BeiLu"}},{"type":"Feature","geometry":{"type":"Point","coordinates":[121.55154049392262,29.836315517736697]},"properties":{"pname":"轨道交通3号线(宁奉城际)","pshort":"3号线/宁奉城际","color":"FFC04C","ls":"900000067955","name":"锦寓路","en":"JinYu Lu"}},{"type":"Feature","geometry":{"type":"Point","coordinates":[121.54671873772423,29.830418052658615]},"properties":{"pname":"轨道交通3号线(宁奉城际)","pshort":"3号线/宁奉城际","color":"FFC04C","ls":"900000067955","name":"四明中路","en":"SiMing ZhongLu"}},{"type":"Feature","geometry":{"type":"Point","coordinates":[121.54626726206287,29.821390899706625]},"properties":{"pname":"轨道交通3号线(宁奉城际)","pshort":"3号线/宁奉城际","color":"FFC04C","ls":"900000067955","name":"鄞州区政府","en":"YinZhouQu ZhengFu"}},{"type":"Feature","geometry":{"type":"Point","coordinates":[121.54505898277625,29.80945043773753]},"properties":{"pname":"轨道交通3号线(宁奉城际)","pshort":"3号线/宁奉城际","color":"FFC04C","ls":"900000067955","name":"南部商务区","en":"NanBu ShangWu Qu"}},{"type":"Feature","geometry":{"type":"Point","coordinates":[121.53746298148394,29.80346037298132]},"properties":{"pname":"轨道交通3号线(宁奉城际)","pshort":"3号线/宁奉城际","color":"FFC04C","ls":"900000067955","name":"鄞州客运总站","en":"YinZhou KeYun ZongZhan"}},{"type":"Feature","geometry":{"type":"Point","coordinates":[121.52718336462621,29.799380277608993]},"properties":{"pname":"轨道交通3号线(宁奉城际)","pshort":"3号线/宁奉城际","color":"FFC04C","ls":"900000067955","name":"句章路","en":"GouZhang Lu"}},{"type":"Feature","geometry":{"type":"Point","coordinates":[121.5253339065203,29.792074073403427]},"properties":{"pname":"轨道交通3号线(宁奉城际)","pshort":"3号线/宁奉城际","color":"FFC04C","ls":"900000067955","name":"高塘桥","en":"GaoTang Qiao"}},{"type":"Feature","geometry":{"type":"Point","coordinates":[121.52331373134145,29.77314986715211]},"properties":{"pname":"轨道交通3号线(宁奉城际)","pshort":"3号线/宁奉城际","color":"FFC04C","ls":"900000067955","name":"姜山","en":"Jiang Shan"}},{"type":"Feature","geometry":{"type":"Point","coordinates":[121.51475610697838,29.76643134033331]},"properties":{"pname":"轨道交通3号线(宁奉城际)","pshort":"3号线/宁奉城际","color":"FFC04C","ls":"900000067955","name":"狮山","en":"ShiShan"}},{"type":"Feature","geometry":{"type":"Point","coordinates":[121.50108979066889,29.76674061734027]},"properties":{"pname":"轨道交通3号线(宁奉城际)","pshort":"3号线/宁奉城际","color":"FFC04C","ls":"900000067955","name":"明辉路","en":"MingHui Lu"}},{"type":"Feature","geometry":{"type":"Point","coordinates":[121.48459967187442,29.76746039491245]},"properties":{"pname":"轨道交通3号线(宁奉城际)","pshort":"3号线/宁奉城际","color":"FFC04C","ls":"900000067955","name":"朝阳","en":"ChaoYang"}},{"type":"Feature","geometry":{"type":"Point","coordinates":[121.44792373962298,29.747967143276874]},"properties":{"pname":"轨道交通3号线(宁奉城际)","pshort":"3号线/宁奉城际","color":"FFC04C","ls":"900000067955","name":"方桥","en":"FangQiao"}},{"type":"Feature","geometry":{"type":"Point","coordinates":[121.44395885986421,29.72440562911582]},"properties":{"pname":"轨道交通3号线(宁奉城际)","pshort":"3号线/宁奉城际","color":"FFC04C","ls":"900000067955","name":"琎琳","en":"JinLin"}},{"type":"Feature","geometry":{"type":"Point","coordinates":[121.44286164945255,29.710963178518863]},"properties":{"pname":"轨道交通3号线(宁奉城际)","pshort":"3号线/宁奉城际","color":"FFC04C","ls":"900000067955","name":"南渡","en":"NanDu"}},{"type":"Feature","geometry":{"type":"Point","coordinates":[121.44509237319997,29.674804927359684]},"properties":{"pname":"轨道交通3号线(宁奉城际)","pshort":"3号线/宁奉城际","color":"FFC04C","ls":"900000067955","name":"大成东路","en":"DaCheng DongLu"}},{"type":"Feature","geometry":{"type":"Point","coordinates":[121.44481749106566,29.65383854180386]},"properties":{"pname":"轨道交通3号线(宁奉城际)","pshort":"3号线/宁奉城际","color":"FFC04C","ls":"900000067955","name":"金海路","en":"JinHai Lu"}}]}