{"type":"FeatureCollection","features":[{"type":"Feature","geometry":{"type":"Point","coordinates":[117.115904,39.207953]},"properties":{"pname":"地铁1号线","pshort":"1号线","color":"CC0000","ls":"120100021504","name":"刘园","en":"liu yuan"}},{"type":"Feature","geometry":{"type":"Point","coordinates":[117.12186,39.200203]},"properties":{"pname":"地铁1号线","pshort":"1号线","color":"CC0000","ls":"120100021504","name":"瑞景新苑","en":"rui jing xin yuan"}},{"type":"Feature","geometry":{"type":"Point","coordinates":[117.128158,39.191974]},"properties":{"pname":"地铁1号线","pshort":"1号线","color":"CC0000","ls":"120100021504","name":"佳园里","en":"jia yuan li"}},{"type":"Feature","geometry":{"type":"Point","coordinates":[117.139463,39.185432]},"properties":{"pname":"地铁1号线","pshort":"1号线","color":"CC0000","ls":"120100021504","name":"本溪路","en":"ben xi lu"}},{"type":"Feature","geometry":{"type":"Point","coordinates":[117.153675,39.178342]},"properties":{"pname":"地铁1号线","pshort":"1号线","color":"CC0000","ls":"120100021504","name":"勤俭道","en":"qin jian dao"}},{"type":"Feature","geometry":{"type":"Point","coordinates":[117.161912,39.170889]},"properties":{"pname":"地铁1号线","pshort":"1号线","color":"CC0000","ls":"120100021504","name":"洪湖里","en":"hong hu li"}},{"type":"Feature","geometry":{"type":"Point","coordinates":[117.166791,39.156971]},"properties":{"pname":"地铁1号线","pshort":"1号线","color":"CC0000","ls":"120100021504","name":"西站","en":"xi zhan"}},{"type":"Feature","geometry":{"type":"Point","coordinates":[117.171661,39.146568]},"properties":{"pname":"地铁1号线","pshort":"1号线","color":"CC0000","ls":"120100021504","name":"西北角","en":"xi bei jiao"}},{"type":"Feature","geometry":{"type":"Point","coordinates":[117.171996,39.137364]},"properties":{"pname":"地铁1号线","pshort":"1号线","color":"CC0000","ls":"120100021504","name":"西南角","en":"xi nan jiao"}},{"type":"Feature","geometry":{"type":"Point","coordinates":[117.174737,39.130318]},"properties":{"pname":"地铁1号线","pshort":"1号线","color":"CC0000","ls":"120100021504","name":"二纬路","en":"er wei lu"}},{"type":"Feature","geometry":{"type":"Point","coordinates":[117.177534,39.122349]},"properties":{"pname":"地铁1号线","pshort":"1号线","color":"CC0000","ls":"120100021504","name":"海光寺","en":"hai guang si"}},{"type":"Feature","geometry":{"type":"Point","coordinates":[117.187336,39.120355]},"properties":{"pname":"地铁1号线","pshort":"1号线","color":"CC0000","ls":"120100021504","name":"鞍山道","en":"an shan dao"}},{"type":"Feature","geometry":{"type":"Point","coordinates":[117.197685,39.118628]},"properties":{"pname":"地铁1号线","pshort":"1号线","color":"CC0000","ls":"120100021504","name":"营口道","en":"ying kou dao"}},{"type":"Feature","geometry":{"type":"Point","coordinates":[117.215406,39.114911]},"properties":{"pname":"地铁1号线","pshort":"1号线","color":"CC0000","ls":"120100021504","name":"小白楼","en":"xiao bai lou"}},{"type":"Feature","geometry":{"type":"Point","coordinates":[117.222893,39.1052]},"properties":{"pname":"地铁1号线","pshort":"1号线","color":"CC0000","ls":"120100021504","name":"下瓦房","en":"xia wa fang"}},{"type":"Feature","geometry":{"type":"Point","coordinates":[117.223877,39.095998]},"properties":{"pname":"地铁1号线","pshort":"1号线","color":"CC0000","ls":"120100021504","name":"南楼","en":"nan lou"}},{"type":"Feature","geometry":{"type":"Point","coordinates":[117.232283,39.089216]},"properties":{"pname":"地铁1号线","pshort":"1号线","color":"CC0000","ls":"120100021504","name":"土城","en":"tu cheng"}},{"type":"Feature","geometry":{"type":"Point","coordinates":[117.248489,39.083497]},"properties":{"pname":"地铁1号线","pshort":"1号线","color":"CC0000","ls":"120100021504","name":"陈塘庄","en":"chen tang zhuang"}},{"type":"Feature","geometry":{"type":"Point","coordinates":[117.260182,39.077205]},"properties":{"pname":"地铁1号线","pshort":"1号线","color":"CC0000","ls":"120100021504","name":"复兴门","en":"fu xing men"}},{"type":"Feature","geometry":{"type":"Point","coordinates":[117.261895,39.06616]},"properties":{"pname":"地铁1号线","pshort":"1号线","color":"CC0000","ls":"120100021504","name":"华山里","en":"hua shan li"}},{"type":"Feature","geometry":{"type":"Point","coordinates":[117.276919,39.063938]},"properties":{"pname":"地铁1号线","pshort":"1号线","color":"CC0000","ls":"120100021504","name":"财经大学","en":"cai jing da xue"}},{"type":"Feature","geometry":{"type":"Point","coordinates":[117.292143,39.057365]},"properties":{"pname":"地铁1号线","pshort":"1号线","color":"CC0000","ls":"120100021504","name":"双林","en":"shuang lin"}},{"type":"Feature","geometry":{"type":"Point","coordinates":[117.317171,39.054449]},"properties":{"pname":"地铁1号线","pshort":"1号线","color":"CC0000","ls":"120100021504","name":"李楼","en":"li lou"}},{"type":"Feature","geometry":{"type":"Point","coordinates":[117.360797,39.043101]},"properties":{"pname":"地铁1号线","pshort":"1号线","color":"CC0000","ls":"120100021504","name":"高庄子","en":"GaoZhuangZi"}},{"type":"Feature","geometry":{"type":"Point","coordinates":[117.383988,39.028975]},"properties":{"pname":"地铁1号线","pshort":"1号线","color":"CC0000","ls":"120100021504","name":"北洋村","en":"BeiYangCun"}},{"type":"Feature","geometry":{"type":"Point","coordinates":[117.390747,39.021933]},"properties":{"pname":"地铁1号线","pshort":"1号线","color":"CC0000","ls":"120100021504","name":"国展路","en":"GuoZhan Lu"}},{"type":"Feature","geometry":{"type":"Point","coordinates":[117.408398,39.012409]},"properties":{"pname":"地铁1号线","pshort":"1号线","color":"CC0000","ls":"120100021504","name":"东沽路","en":"DongGu Lu"}},{"type":"Feature","geometry":{"type":"Point","coordinates":[117.362628,39.132116]},"properties":{"pname":"地铁2号线","pshort":"2号线","color":"FCD600","ls":"120100021904","name":"滨海国际机场","en":"bin hai guo ji ji chang"}},{"type":"Feature","geometry":{"type":"Point","coordinates":[117.335,39.1577]},"properties":{"pname":"地铁2号线","pshort":"2号线","color":"FCD600","ls":"120100021904","name":"空港经济区","en":"kong gang jing ji qu"}},{"type":"Feature","geometry":{"type":"Point","coordinates":[117.31,39.1541]},"properties":{"pname":"地铁2号线","pshort":"2号线","color":"FCD600","ls":"120100021904","name":"国山路","en":"guo shan lu"}},{"type":"Feature","geometry":{"type":"Point","coordinates":[117.296,39.1505]},"properties":{"pname":"地铁2号线","pshort":"2号线","color":"FCD600","ls":"120100021904","name":"登州路","en":"deng zhou lu"}},{"type":"Feature","geometry":{"type":"Point","coordinates":[117.28,39.1472]},"properties":{"pname":"地铁2号线","pshort":"2号线","color":"FCD600","ls":"120100021904","name":"屿东城","en":"yu dong cheng"}},{"type":"Feature","geometry":{"type":"Point","coordinates":[117.258,39.144]},"properties":{"pname":"地铁2号线","pshort":"2号线","color":"FCD600","ls":"120100021904","name":"翠阜新村","en":"cui fu xin cun"}},{"type":"Feature","geometry":{"type":"Point","coordinates":[117.244243,39.14252]},"properties":{"pname":"地铁2号线","pshort":"2号线","color":"FCD600","ls":"120100021904","name":"靖江路","en":"jing jiang lu"}},{"type":"Feature","geometry":{"type":"Point","coordinates":[117.234,39.1414]},"properties":{"pname":"地铁2号线","pshort":"2号线","color":"FCD600","ls":"120100021904","name":"顺驰桥","en":"shun chi qiao"}},{"type":"Feature","geometry":{"type":"Point","coordinates":[117.221,39.1365]},"properties":{"pname":"地铁2号线","pshort":"2号线","color":"FCD600","ls":"120100021904","name":"远洋国际中心","en":"yuan yang guo ji zhong xin"}},{"type":"Feature","geometry":{"type":"Point","coordinates":[117.211693,39.137783]},"properties":{"pname":"地铁2号线","pshort":"2号线","color":"FCD600","ls":"120100021904","name":"天津站","en":"tian jin zhan"}},{"type":"Feature","geometry":{"type":"Point","coordinates":[117.201,39.139]},"properties":{"pname":"地铁2号线","pshort":"2号线","color":"FCD600","ls":"120100021904","name":"建国道","en":"jian guo dao"}},{"type":"Feature","geometry":{"type":"Point","coordinates":[117.190293,39.136881]},"properties":{"pname":"地铁2号线","pshort":"2号线","color":"FCD600","ls":"120100021904","name":"东南角","en":"dong nan jiao"}},{"type":"Feature","geometry":{"type":"Point","coordinates":[117.181228,39.137127]},"properties":{"pname":"地铁2号线","pshort":"2号线","color":"FCD600","ls":"120100021904","name":"鼓楼","en":"gu lou"}},{"type":"Feature","geometry":{"type":"Point","coordinates":[117.162,39.1377]},"properties":{"pname":"地铁2号线","pshort":"2号线","color":"FCD600","ls":"120100021904","name":"广开四马路","en":"guang kai si ma lu"}},{"type":"Feature","geometry":{"type":"Point","coordinates":[117.149444,39.137806]},"properties":{"pname":"地铁2号线","pshort":"2号线","color":"FCD600","ls":"120100021904","name":"长虹公园","en":"chang hong gong yuan"}},{"type":"Feature","geometry":{"type":"Point","coordinates":[117.135,39.1378]},"properties":{"pname":"地铁2号线","pshort":"2号线","color":"FCD600","ls":"120100021904","name":"咸阳路","en":"xian yang lu"}},{"type":"Feature","geometry":{"type":"Point","coordinates":[117.12,39.1427]},"properties":{"pname":"地铁2号线","pshort":"2号线","color":"FCD600","ls":"120100021904","name":"芥园西道","en":"jie yuan xi dao"}},{"type":"Feature","geometry":{"type":"Point","coordinates":[117.109,39.1462]},"properties":{"pname":"地铁2号线","pshort":"2号线","color":"FCD600","ls":"120100021904","name":"卞兴","en":"bian xing"}},{"type":"Feature","geometry":{"type":"Point","coordinates":[117.090954,39.1457]},"properties":{"pname":"地铁2号线","pshort":"2号线","color":"FCD600","ls":"120100021904","name":"曹庄","en":"cao zhuang"}},{"type":"Feature","geometry":{"type":"Point","coordinates":[117.257642,39.239186]},"properties":{"pname":"地铁3号线","pshort":"3号线","color":"019AC3","ls":"120100021500","name":"小淀","en":"xiao dian"}},{"type":"Feature","geometry":{"type":"Point","coordinates":[117.23602,39.23816]},"properties":{"pname":"地铁3号线","pshort":"3号线","color":"019AC3","ls":"120100021500","name":"丰产河","en":"feng chan he"}},{"type":"Feature","geometry":{"type":"Point","coordinates":[117.228,39.2276]},"properties":{"pname":"地铁3号线","pshort":"3号线","color":"019AC3","ls":"120100021500","name":"华北集团","en":"hua bei ji tuan"}},{"type":"Feature","geometry":{"type":"Point","coordinates":[117.215,39.2059]},"properties":{"pname":"地铁3号线","pshort":"3号线","color":"019AC3","ls":"120100021500","name":"天士力","en":"tian shi li"}},{"type":"Feature","geometry":{"type":"Point","coordinates":[117.219,39.1976]},"properties":{"pname":"地铁3号线","pshort":"3号线","color":"019AC3","ls":"120100021500","name":"宜兴埠","en":"yi xing bu"}},{"type":"Feature","geometry":{"type":"Point","coordinates":[117.21482,39.191928]},"properties":{"pname":"地铁3号线","pshort":"3号线","color":"019AC3","ls":"120100021500","name":"张兴庄","en":"zhang xing zhuang"}},{"type":"Feature","geometry":{"type":"Point","coordinates":[117.207,39.1799]},"properties":{"pname":"地铁3号线","pshort":"3号线","color":"019AC3","ls":"120100021500","name":"铁东路","en":"tie dong lu"}},{"type":"Feature","geometry":{"type":"Point","coordinates":[117.207438,39.166648]},"properties":{"pname":"地铁3号线","pshort":"3号线","color":"019AC3","ls":"120100021500","name":"北站","en":"bei zhan"}},{"type":"Feature","geometry":{"type":"Point","coordinates":[117.206,39.1618]},"properties":{"pname":"地铁3号线","pshort":"3号线","color":"019AC3","ls":"120100021500","name":"中山路","en":"zhong shan lu"}},{"type":"Feature","geometry":{"type":"Point","coordinates":[117.208,39.1511]},"properties":{"pname":"地铁3号线","pshort":"3号线","color":"019AC3","ls":"120100021500","name":"金狮桥","en":"jin shi qiao"}},{"type":"Feature","geometry":{"type":"Point","coordinates":[117.208,39.132]},"properties":{"pname":"地铁3号线","pshort":"3号线","color":"019AC3","ls":"120100021500","name":"津湾广场","en":"jin wan guang chang"}},{"type":"Feature","geometry":{"type":"Point","coordinates":[117.205,39.1269]},"properties":{"pname":"地铁3号线","pshort":"3号线","color":"019AC3","ls":"120100021500","name":"和平路","en":"he ping lu"}},{"type":"Feature","geometry":{"type":"Point","coordinates":[117.188,39.1122]},"properties":{"pname":"地铁3号线","pshort":"3号线","color":"019AC3","ls":"120100021500","name":"西康路","en":"xi kang lu"}},{"type":"Feature","geometry":{"type":"Point","coordinates":[117.186,39.0998]},"properties":{"pname":"地铁3号线","pshort":"3号线","color":"019AC3","ls":"120100021500","name":"吴家窑","en":"wu jia yao"}},{"type":"Feature","geometry":{"type":"Point","coordinates":[117.178,39.0958]},"properties":{"pname":"地铁3号线","pshort":"3号线","color":"019AC3","ls":"120100021500","name":"天塔","en":"tian ta"}},{"type":"Feature","geometry":{"type":"Point","coordinates":[117.164,39.0927]},"properties":{"pname":"地铁3号线","pshort":"3号线","color":"019AC3","ls":"120100021500","name":"周邓纪念馆","en":"zhou deng ji nian guan"}},{"type":"Feature","geometry":{"type":"Point","coordinates":[117.148149,39.092757]},"properties":{"pname":"地铁3号线","pshort":"3号线","color":"019AC3","ls":"120100021500","name":"红旗南路","en":"hong qi nan lu"}},{"type":"Feature","geometry":{"type":"Point","coordinates":[117.139,39.0921]},"properties":{"pname":"地铁3号线","pshort":"3号线","color":"019AC3","ls":"120100021500","name":"王顶堤","en":"wang ding di"}},{"type":"Feature","geometry":{"type":"Point","coordinates":[117.129,39.0872]},"properties":{"pname":"地铁3号线","pshort":"3号线","color":"019AC3","ls":"120100021500","name":"华苑","en":"hua yuan"}},{"type":"Feature","geometry":{"type":"Point","coordinates":[117.112,39.0724]},"properties":{"pname":"地铁3号线","pshort":"3号线","color":"019AC3","ls":"120100021500","name":"大学城","en":"da xue cheng"}},{"type":"Feature","geometry":{"type":"Point","coordinates":[117.099,39.0719]},"properties":{"pname":"地铁3号线","pshort":"3号线","color":"019AC3","ls":"120100021500","name":"高新区","en":"gao xin qu"}},{"type":"Feature","geometry":{"type":"Point","coordinates":[117.079,39.0719]},"properties":{"pname":"地铁3号线","pshort":"3号线","color":"019AC3","ls":"120100021500","name":"学府工业区","en":"xue fu gong ye qu"}},{"type":"Feature","geometry":{"type":"Point","coordinates":[117.07,39.0683]},"properties":{"pname":"地铁3号线","pshort":"3号线","color":"019AC3","ls":"120100021500","name":"杨伍庄","en":"yang wu zhuang"}},{"type":"Feature","geometry":{"type":"Point","coordinates":[117.062101,39.057038]},"properties":{"pname":"地铁3号线","pshort":"3号线","color":"019AC3","ls":"120100021500","name":"南站","en":"nan zhan"}},{"type":"Feature","geometry":{"type":"Point","coordinates":[117.184741,39.046873]},"properties":{"pname":"地铁5号线","pshort":"5号线","color":"EE782E","ls":"120100021323","name":"中医一附院","en":"zhong yi yi fu yuan"}},{"type":"Feature","geometry":{"type":"Point","coordinates":[117.184775,39.05648]},"properties":{"pname":"地铁5号线","pshort":"5号线","color":"EE782E","ls":"120100021323","name":"昌凌路","en":"chang ling lu"}},{"type":"Feature","geometry":{"type":"Point","coordinates":[117.17201,39.068057]},"properties":{"pname":"地铁5号线","pshort":"5号线","color":"EE782E","ls":"120100021323","name":"凌宾路","en":"ling bin lu"}},{"type":"Feature","geometry":{"type":"Point","coordinates":[117.172458,39.074732]},"properties":{"pname":"地铁5号线","pshort":"5号线","color":"EE782E","ls":"120100021323","name":"体育中心","en":"ti yu zhong xin"}},{"type":"Feature","geometry":{"type":"Point","coordinates":[117.184469,39.078996]},"properties":{"pname":"地铁5号线","pshort":"5号线","color":"EE782E","ls":"120100021323","name":"肿瘤医院","en":"zhong liu yi yuan"}},{"type":"Feature","geometry":{"type":"Point","coordinates":[117.198548,39.08533]},"properties":{"pname":"地铁5号线","pshort":"5号线","color":"EE782E","ls":"120100021323","name":"天津宾馆","en":"tian jin bin guan"}},{"type":"Feature","geometry":{"type":"Point","coordinates":[117.206929,39.089878]},"properties":{"pname":"地铁5号线","pshort":"5号线","color":"EE782E","ls":"120100021323","name":"文化中心","en":"wen hua zhong xin"}},{"type":"Feature","geometry":{"type":"Point","coordinates":[117.21606,39.09543]},"properties":{"pname":"地铁5号线","pshort":"5号线","color":"EE782E","ls":"120100021323","name":"西南楼","en":"xi nan lou"}},{"type":"Feature","geometry":{"type":"Point","coordinates":[117.233925,39.111012]},"properties":{"pname":"地铁5号线","pshort":"5号线","color":"EE782E","ls":"120100021323","name":"直沽","en":"zhi gu"}},{"type":"Feature","geometry":{"type":"Point","coordinates":[117.241396,39.116533]},"properties":{"pname":"地铁5号线","pshort":"5号线","color":"EE782E","ls":"120100021323","name":"津塘路","en":"jin tang lu"}},{"type":"Feature","geometry":{"type":"Point","coordinates":[117.245626,39.1303]},"properties":{"pname":"地铁5号线","pshort":"5号线","color":"EE782E","ls":"120100021323","name":"成林道","en":"cheng lin dao"}},{"type":"Feature","geometry":{"type":"Point","coordinates":[117.24419,39.154124]},"properties":{"pname":"地铁5号线","pshort":"5号线","color":"EE782E","ls":"120100021323","name":"幸福公园","en":"xing fu gong yuan"}},{"type":"Feature","geometry":{"type":"Point","coordinates":[117.245788,39.164793]},"properties":{"pname":"地铁5号线","pshort":"5号线","color":"EE782E","ls":"120100021323","name":"月牙河","en":"yue ya he"}},{"type":"Feature","geometry":{"type":"Point","coordinates":[117.241892,39.172135]},"properties":{"pname":"地铁5号线","pshort":"5号线","color":"EE782E","ls":"120100021323","name":"金钟河大街","en":"jin zhong he da jie"}},{"type":"Feature","geometry":{"type":"Point","coordinates":[117.234644,39.179628]},"properties":{"pname":"地铁5号线","pshort":"5号线","color":"EE782E","ls":"120100021323","name":"建昌道","en":"jian chang dao"}},{"type":"Feature","geometry":{"type":"Point","coordinates":[117.227463,39.183388]},"properties":{"pname":"地铁5号线","pshort":"5号线","color":"EE782E","ls":"120100021323","name":"思源路","en":"si yuan lu"}},{"type":"Feature","geometry":{"type":"Point","coordinates":[117.219132,39.187116]},"properties":{"pname":"地铁5号线","pshort":"5号线","color":"EE782E","ls":"120100021323","name":"志成路","en":"zhi cheng lu"}},{"type":"Feature","geometry":{"type":"Point","coordinates":[117.205425,39.203038]},"properties":{"pname":"地铁5号线","pshort":"5号线","color":"EE782E","ls":"120100021323","name":"宜兴埠北","en":"yi xing bu bei"}},{"type":"Feature","geometry":{"type":"Point","coordinates":[117.2,39.209751]},"properties":{"pname":"地铁5号线","pshort":"5号线","color":"EE782E","ls":"120100021323","name":"辽河北道","en":"liao he bei dao"}},{"type":"Feature","geometry":{"type":"Point","coordinates":[117.192484,39.218578]},"properties":{"pname":"地铁5号线","pshort":"5号线","color":"EE782E","ls":"120100021323","name":"淮河道","en":"huai he dao"}},{"type":"Feature","geometry":{"type":"Point","coordinates":[117.181972,39.231034]},"properties":{"pname":"地铁5号线","pshort":"5号线","color":"EE782E","ls":"120100021323","name":"职业大学","en":"zhi ye da xue"}},{"type":"Feature","geometry":{"type":"Point","coordinates":[117.173656,39.240641]},"properties":{"pname":"地铁5号线","pshort":"5号线","color":"EE782E","ls":"120100021323","name":"北辰道","en":"bei chen dao"}},{"type":"Feature","geometry":{"type":"Point","coordinates":[117.163651,39.252431]},"properties":{"pname":"地铁5号线","pshort":"5号线","color":"EE782E","ls":"120100021323","name":"丹河北道","en":"dan he bei dao"}},{"type":"Feature","geometry":{"type":"Point","coordinates":[117.149889,39.267876]},"properties":{"pname":"地铁5号线","pshort":"5号线","color":"EE782E","ls":"120100021323","name":"北辰科技园北","en":"bei chen ke ji yuan bei"}},{"type":"Feature","geometry":{"type":"Point","coordinates":[117.318352,39.206528]},"properties":{"pname":"地铁6号线","pshort":"6号线","color":"A61D7F","ls":"120100021325","name":"南孙庄","en":"nan sun zhuang"}},{"type":"Feature","geometry":{"type":"Point","coordinates":[117.291016,39.206352]},"properties":{"pname":"地铁6号线","pshort":"6号线","color":"A61D7F","ls":"120100021325","name":"南何庄","en":"nan he zhuang"}},{"type":"Feature","geometry":{"type":"Point","coordinates":[117.279144,39.202998]},"properties":{"pname":"地铁6号线","pshort":"6号线","color":"A61D7F","ls":"120100021325","name":"大毕庄","en":"da bi zhuang"}},{"type":"Feature","geometry":{"type":"Point","coordinates":[117.266101,39.19988]},"properties":{"pname":"地铁6号线","pshort":"6号线","color":"A61D7F","ls":"120100021325","name":"金钟街","en":"jin zhong jie"}},{"type":"Feature","geometry":{"type":"Point","coordinates":[117.254154,39.190924]},"properties":{"pname":"地铁6号线","pshort":"6号线","color":"A61D7F","ls":"120100021325","name":"徐庄子","en":"xu zhuang zi"}},{"type":"Feature","geometry":{"type":"Point","coordinates":[117.233382,39.168658]},"properties":{"pname":"地铁6号线","pshort":"6号线","color":"A61D7F","ls":"120100021325","name":"民权门","en":"min quan men"}},{"type":"Feature","geometry":{"type":"Point","coordinates":[117.223159,39.166274]},"properties":{"pname":"地铁6号线","pshort":"6号线","color":"A61D7F","ls":"120100021325","name":"北宁公园","en":"bei ning gong yuan"}},{"type":"Feature","geometry":{"type":"Point","coordinates":[117.202847,39.168877]},"properties":{"pname":"地铁6号线","pshort":"6号线","color":"A61D7F","ls":"120100021325","name":"新开河","en":"xin kai he"}},{"type":"Feature","geometry":{"type":"Point","coordinates":[117.19183,39.171266]},"properties":{"pname":"地铁6号线","pshort":"6号线","color":"A61D7F","ls":"120100021325","name":"外院附中","en":"wai yuan fu zhong"}},{"type":"Feature","geometry":{"type":"Point","coordinates":[117.183317,39.168219]},"properties":{"pname":"地铁6号线","pshort":"6号线","color":"A61D7F","ls":"120100021325","name":"天泰路","en":"tian tai lu"}},{"type":"Feature","geometry":{"type":"Point","coordinates":[117.172709,39.160215]},"properties":{"pname":"地铁6号线","pshort":"6号线","color":"A61D7F","ls":"120100021325","name":"北竹林","en":"bei zhu lin"}},{"type":"Feature","geometry":{"type":"Point","coordinates":[117.157852,39.156157]},"properties":{"pname":"地铁6号线","pshort":"6号线","color":"A61D7F","ls":"120100021325","name":"复兴路","en":"fu xing lu"}},{"type":"Feature","geometry":{"type":"Point","coordinates":[117.149712,39.147393]},"properties":{"pname":"地铁6号线","pshort":"6号线","color":"A61D7F","ls":"120100021325","name":"人民医院","en":"ren min yi yuan"}},{"type":"Feature","geometry":{"type":"Point","coordinates":[117.149321,39.126417]},"properties":{"pname":"地铁6号线","pshort":"6号线","color":"A61D7F","ls":"120100021325","name":"宜宾道","en":"yi bin dao"}},{"type":"Feature","geometry":{"type":"Point","coordinates":[117.149365,39.11653]},"properties":{"pname":"地铁6号线","pshort":"6号线","color":"A61D7F","ls":"120100021325","name":"鞍山西道","en":"an shan xi dao"}},{"type":"Feature","geometry":{"type":"Point","coordinates":[117.149438,39.109224]},"properties":{"pname":"地铁6号线","pshort":"6号线","color":"A61D7F","ls":"120100021325","name":"天拖","en":"tian tuo"}},{"type":"Feature","geometry":{"type":"Point","coordinates":[117.149454,39.103145]},"properties":{"pname":"地铁6号线","pshort":"6号线","color":"A61D7F","ls":"120100021325","name":"一中心医院","en":"yi zhong xin yi yuan"}},{"type":"Feature","geometry":{"type":"Point","coordinates":[117.149468,39.086153]},"properties":{"pname":"地铁6号线","pshort":"6号线","color":"A61D7F","ls":"120100021325","name":"迎风道","en":"ying feng dao"}},{"type":"Feature","geometry":{"type":"Point","coordinates":[117.15864,39.079964]},"properties":{"pname":"地铁6号线","pshort":"6号线","color":"A61D7F","ls":"120100021325","name":"南翠屏","en":"nan cui ping"}},{"type":"Feature","geometry":{"type":"Point","coordinates":[117.173133,39.079509]},"properties":{"pname":"地铁6号线","pshort":"6号线","color":"A61D7F","ls":"120100021325","name":"水上公园东路","en":"shui shang gong yuan dong lu"}},{"type":"Feature","geometry":{"type":"Point","coordinates":[117.217504,39.091252]},"properties":{"pname":"地铁6号线","pshort":"6号线","color":"A61D7F","ls":"120100021325","name":"乐园道","en":"le yuan dao"}},{"type":"Feature","geometry":{"type":"Point","coordinates":[117.224,39.087236]},"properties":{"pname":"地铁6号线","pshort":"6号线","color":"A61D7F","ls":"120100021325","name":"尖山路","en":"jian shan lu"}},{"type":"Feature","geometry":{"type":"Point","coordinates":[117.224043,39.081197]},"properties":{"pname":"地铁6号线","pshort":"6号线","color":"A61D7F","ls":"120100021325","name":"黑牛城道","en":"hei niu cheng dao"}},{"type":"Feature","geometry":{"type":"Point","coordinates":[117.225609,39.06881]},"properties":{"pname":"地铁6号线","pshort":"6号线","color":"A61D7F","ls":"120100021325","name":"梅江道","en":"mei jiang dao"}},{"type":"Feature","geometry":{"type":"Point","coordinates":[117.217741,39.06001]},"properties":{"pname":"地铁6号线","pshort":"6号线","color":"A61D7F","ls":"120100021325","name":"左江道","en":"zuo jiang dao"}},{"type":"Feature","geometry":{"type":"Point","coordinates":[117.217558,39.052331]},"properties":{"pname":"地铁6号线","pshort":"6号线","color":"A61D7F","ls":"120100021325","name":"梅江公园","en":"mei jiang gong yuan"}},{"type":"Feature","geometry":{"type":"Point","coordinates":[117.217726,39.044312]},"properties":{"pname":"地铁6号线","pshort":"6号线","color":"A61D7F","ls":"120100021325","name":"梅江会展中心","en":"mei jiang hui zhan zhong xin"}},{"type":"Feature","geometry":{"type":"Point","coordinates":[117.234015,39.040749]},"properties":{"pname":"地铁6号线","pshort":"6号线","color":"A61D7F","ls":"120100021325","name":"解放南路","en":"jie fang nan lu"}},{"type":"Feature","geometry":{"type":"Point","coordinates":[117.245877,39.04359]},"properties":{"pname":"地铁6号线","pshort":"6号线","color":"A61D7F","ls":"120100021325","name":"洞庭路","en":"dong ting lu"}},{"type":"Feature","geometry":{"type":"Point","coordinates":[117.25478,39.04482]},"properties":{"pname":"地铁6号线","pshort":"6号线","color":"A61D7F","ls":"120100021325","name":"梅林路","en":"mei lin lu"}},{"type":"Feature","geometry":{"type":"Point","coordinates":[117.737288,39.040571]},"properties":{"pname":"津滨轻轨9号线","pshort":"9号线","color":"2249A3","ls":"120100031870","name":"东海路","en":"dong hai lu"}},{"type":"Feature","geometry":{"type":"Point","coordinates":[117.731698,39.029989]},"properties":{"pname":"津滨轻轨9号线","pshort":"9号线","color":"2249A3","ls":"120100031870","name":"会展中心","en":"hui zhan zhong xin"}},{"type":"Feature","geometry":{"type":"Point","coordinates":[117.723519,39.019886]},"properties":{"pname":"津滨轻轨9号线","pshort":"9号线","color":"2249A3","ls":"120100031870","name":"太湖路","en":"tai hu lu"}},{"type":"Feature","geometry":{"type":"Point","coordinates":[117.70306,39.018183]},"properties":{"pname":"津滨轻轨9号线","pshort":"9号线","color":"2249A3","ls":"120100031870","name":"市民广场","en":"shi min guang chang"}},{"type":"Feature","geometry":{"type":"Point","coordinates":[117.679383,39.025419]},"properties":{"pname":"津滨轻轨9号线","pshort":"9号线","color":"2249A3","ls":"120100031870","name":"泰达","en":"tai da"}},{"type":"Feature","geometry":{"type":"Point","coordinates":[117.661102,39.029451]},"properties":{"pname":"津滨轻轨9号线","pshort":"9号线","color":"2249A3","ls":"120100031870","name":"塘沽","en":"tang gu"}},{"type":"Feature","geometry":{"type":"Point","coordinates":[117.607373,39.040524]},"properties":{"pname":"津滨轻轨9号线","pshort":"9号线","color":"2249A3","ls":"120100031870","name":"胡家园","en":"hu jia yuan"}},{"type":"Feature","geometry":{"type":"Point","coordinates":[117.503891,39.039772]},"properties":{"pname":"津滨轻轨9号线","pshort":"9号线","color":"2249A3","ls":"120100031870","name":"钢管公司","en":"gang guan gong si"}},{"type":"Feature","geometry":{"type":"Point","coordinates":[117.456102,39.048049]},"properties":{"pname":"津滨轻轨9号线","pshort":"9号线","color":"2249A3","ls":"120100031870","name":"军粮城","en":"jun liang cheng"}},{"type":"Feature","geometry":{"type":"Point","coordinates":[117.403344,39.064397]},"properties":{"pname":"津滨轻轨9号线","pshort":"9号线","color":"2249A3","ls":"120100031870","name":"小东庄","en":"xiao dong zhuang"}},{"type":"Feature","geometry":{"type":"Point","coordinates":[117.357421,39.079404]},"properties":{"pname":"津滨轻轨9号线","pshort":"9号线","color":"2249A3","ls":"120100031870","name":"东丽开发区","en":"dong li kai fa qu"}},{"type":"Feature","geometry":{"type":"Point","coordinates":[117.336003,39.085873]},"properties":{"pname":"津滨轻轨9号线","pshort":"9号线","color":"2249A3","ls":"120100031870","name":"新立","en":"xin li"}},{"type":"Feature","geometry":{"type":"Point","coordinates":[117.307746,39.092112]},"properties":{"pname":"津滨轻轨9号线","pshort":"9号线","color":"2249A3","ls":"120100031870","name":"张贵庄","en":"zhang gui zhuang"}},{"type":"Feature","geometry":{"type":"Point","coordinates":[117.29315,39.09518]},"properties":{"pname":"津滨轻轨9号线","pshort":"9号线","color":"2249A3","ls":"120100031870","name":"二号桥","en":"er hao qiao"}},{"type":"Feature","geometry":{"type":"Point","coordinates":[117.282902,39.096099]},"properties":{"pname":"津滨轻轨9号线","pshort":"9号线","color":"2249A3","ls":"120100031870","name":"一号桥","en":"yi hao qiao"}},{"type":"Feature","geometry":{"type":"Point","coordinates":[117.264334,39.100869]},"properties":{"pname":"津滨轻轨9号线","pshort":"9号线","color":"2249A3","ls":"120100031870","name":"中山门","en":"zhong shan men"}},{"type":"Feature","geometry":{"type":"Point","coordinates":[117.24257,39.103422]},"properties":{"pname":"津滨轻轨9号线","pshort":"9号线","color":"2249A3","ls":"120100031870","name":"东兴路","en":"dong xing lu"}},{"type":"Feature","geometry":{"type":"Point","coordinates":[117.223939,39.121374]},"properties":{"pname":"津滨轻轨9号线","pshort":"9号线","color":"2249A3","ls":"120100031870","name":"十一经路","en":"shi yi jing lu"}},{"type":"Feature","geometry":{"type":"Point","coordinates":[117.218471,39.127225]},"properties":{"pname":"津滨轻轨9号线","pshort":"9号线","color":"2249A3","ls":"120100031870","name":"大王庄","en":"da wang zhuang"}}]}