{"type":"FeatureCollection","features":[{"type":"Feature","geometry":{"type":"Point","coordinates":[117.10946199910046,39.20673592631771]},"properties":{"pname":"地铁1号线","pshort":"1号线","color":"CC0000","ls":"120100021504","name":"刘园","en":"liu yuan"}},{"type":"Feature","geometry":{"type":"Point","coordinates":[117.1154201213218,39.1989938597767]},"properties":{"pname":"地铁1号线","pshort":"1号线","color":"CC0000","ls":"120100021504","name":"瑞景新苑","en":"rui jing xin yuan"}},{"type":"Feature","geometry":{"type":"Point","coordinates":[117.12172228803313,39.190774776860586]},"properties":{"pname":"地铁1号线","pshort":"1号线","color":"CC0000","ls":"120100021504","name":"佳园里","en":"jia yuan li"}},{"type":"Feature","geometry":{"type":"Point","coordinates":[117.1330381721957,39.184249261007125]},"properties":{"pname":"地铁1号线","pshort":"1号线","color":"CC0000","ls":"120100021504","name":"本溪路","en":"ben xi lu"}},{"type":"Feature","geometry":{"type":"Point","coordinates":[117.14727039152224,39.17718445106109]},"properties":{"pname":"地铁1号线","pshort":"1号线","color":"CC0000","ls":"120100021504","name":"勤俭道","en":"qin jian dao"}},{"type":"Feature","geometry":{"type":"Point","coordinates":[117.15552204126983,39.169749930167654]},"properties":{"pname":"地铁1号线","pshort":"1号线","color":"CC0000","ls":"120100021504","name":"洪湖里","en":"hong hu li"}},{"type":"Feature","geometry":{"type":"Point","coordinates":[117.1604115204555,39.15584897444983]},"properties":{"pname":"地铁1号线","pshort":"1号线","color":"CC0000","ls":"120100021504","name":"西站","en":"xi zhan"}},{"type":"Feature","geometry":{"type":"Point","coordinates":[117.16529182687029,39.145461179675635]},"properties":{"pname":"地铁1号线","pshort":"1号线","color":"CC0000","ls":"120100021504","name":"西北角","en":"xi bei jiao"}},{"type":"Feature","geometry":{"type":"Point","coordinates":[117.16562862547984,39.136263338459756]},"properties":{"pname":"地铁1号线","pshort":"1号线","color":"CC0000","ls":"120100021504","name":"西南角","en":"xi nan jiao"}},{"type":"Feature","geometry":{"type":"Point","coordinates":[117.16837566697433,39.129226714070725]},"properties":{"pname":"地铁1号线","pshort":"1号线","color":"CC0000","ls":"120100021504","name":"二纬路","en":"er wei lu"}},{"type":"Feature","geometry":{"type":"Point","coordinates":[117.17117896355101,39.12126779012481]},"properties":{"pname":"地铁1号线","pshort":"1号线","color":"CC0000","ls":"120100021504","name":"海光寺","en":"hai guang si"}},{"type":"Feature","geometry":{"type":"Point","coordinates":[117.18099967786789,39.11929330551621]},"properties":{"pname":"地铁1号线","pshort":"1号线","color":"CC0000","ls":"120100021504","name":"鞍山道","en":"an shan dao"}},{"type":"Feature","geometry":{"type":"Point","coordinates":[117.19136751207587,39.11758592556646]},"properties":{"pname":"地铁1号线","pshort":"1号线","color":"CC0000","ls":"120100021504","name":"营口道","en":"ying kou dao"}},{"type":"Feature","geometry":{"type":"Point","coordinates":[117.2091158532159,39.11389890273414]},"properties":{"pname":"地铁1号线","pshort":"1号线","color":"CC0000","ls":"120100021504","name":"小白楼","en":"xiao bai lou"}},{"type":"Feature","geometry":{"type":"Point","coordinates":[117.21661261368898,39.10420326840962]},"properties":{"pname":"地铁1号线","pshort":"1号线","color":"CC0000","ls":"120100021504","name":"下瓦房","en":"xia wa fang"}},{"type":"Feature","geometry":{"type":"Point","coordinates":[117.21759874461162,39.09500802025886]},"properties":{"pname":"地铁1号线","pshort":"1号线","color":"CC0000","ls":"120100021504","name":"南楼","en":"nan lou"}},{"type":"Feature","geometry":{"type":"Point","coordinates":[117.22601234634283,39.08823851096093]},"properties":{"pname":"地铁1号线","pshort":"1号线","color":"CC0000","ls":"120100021504","name":"土城","en":"tu cheng"}},{"type":"Feature","geometry":{"type":"Point","coordinates":[117.24222348884277,39.08253222415671]},"properties":{"pname":"地铁1号线","pshort":"1号线","color":"CC0000","ls":"120100021504","name":"陈塘庄","en":"chen tang zhuang"}},{"type":"Feature","geometry":{"type":"Point","coordinates":[117.25391291012562,39.076244693924856]},"properties":{"pname":"地铁1号线","pshort":"1号线","color":"CC0000","ls":"120100021504","name":"复兴门","en":"fu xing men"}},{"type":"Feature","geometry":{"type":"Point","coordinates":[117.25562611407045,39.06520614957948]},"properties":{"pname":"地铁1号线","pshort":"1号线","color":"CC0000","ls":"120100021504","name":"华山里","en":"hua shan li"}},{"type":"Feature","geometry":{"type":"Point","coordinates":[117.27063421199007,39.06297784047135]},"properties":{"pname":"地铁1号线","pshort":"1号线","color":"CC0000","ls":"120100021504","name":"财经大学","en":"cai jing da xue"}},{"type":"Feature","geometry":{"type":"Point","coordinates":[117.28583278845704,39.056393205041395]},"properties":{"pname":"地铁1号线","pshort":"1号线","color":"CC0000","ls":"120100021504","name":"双林","en":"shuang lin"}},{"type":"Feature","geometry":{"type":"Point","coordinates":[117.31080156275969,39.05343988136173]},"properties":{"pname":"地铁1号线","pshort":"1号线","color":"CC0000","ls":"120100021504","name":"李楼","en":"li lou"}},{"type":"Feature","geometry":{"type":"Point","coordinates":[117.35431152913701,39.042018446347136]},"properties":{"pname":"地铁1号线","pshort":"1号线","color":"CC0000","ls":"120100021504","name":"高庄子","en":"GaoZhuangZi"}},{"type":"Feature","geometry":{"type":"Point","coordinates":[117.37745762659507,39.02786976287472]},"properties":{"pname":"地铁1号线","pshort":"1号线","color":"CC0000","ls":"120100021504","name":"北洋村","en":"BeiYangCun"}},{"type":"Feature","geometry":{"type":"Point","coordinates":[117.38420815957531,39.02082613513343]},"properties":{"pname":"地铁1号线","pshort":"1号线","color":"CC0000","ls":"120100021504","name":"国展路","en":"GuoZhan Lu"}},{"type":"Feature","geometry":{"type":"Point","coordinates":[117.40184649692351,39.01130095075048]},"properties":{"pname":"地铁1号线","pshort":"1号线","color":"CC0000","ls":"120100021504","name":"东沽路","en":"DongGu Lu"}},{"type":"Feature","geometry":{"type":"Point","coordinates":[117.35612670715977,39.13097592122492]},"properties":{"pname":"地铁2号线","pshort":"2号线","color":"FCD600","ls":"120100021904","name":"滨海国际机场","en":"bin hai guo ji ji chang"}},{"type":"Feature","geometry":{"type":"Point","coordinates":[117.32856831989066,39.15659456513783]},"properties":{"pname":"地铁2号线","pshort":"2号线","color":"FCD600","ls":"120100021904","name":"空港经济区","en":"kong gang jing ji qu"}},{"type":"Feature","geometry":{"type":"Point","coordinates":[117.3036365831606,39.15304264180788]},"properties":{"pname":"地铁2号线","pshort":"2号线","color":"FCD600","ls":"120100021904","name":"国山路","en":"guo shan lu"}},{"type":"Feature","geometry":{"type":"Point","coordinates":[117.28966999505856,39.149466320615915]},"properties":{"pname":"地铁2号线","pshort":"2号线","color":"FCD600","ls":"120100021904","name":"登州路","en":"deng zhou lu"}},{"type":"Feature","geometry":{"type":"Point","coordinates":[117.27370016543576,39.146186497671685]},"properties":{"pname":"地铁2号线","pshort":"2号线","color":"FCD600","ls":"120100021904","name":"屿东城","en":"yu dong cheng"}},{"type":"Feature","geometry":{"type":"Point","coordinates":[117.2517238154033,39.142999283551966]},"properties":{"pname":"地铁2号线","pshort":"2号线","color":"FCD600","ls":"120100021904","name":"翠阜新村","en":"cui fu xin cun"}},{"type":"Feature","geometry":{"type":"Point","coordinates":[117.23797005702428,39.14151779902661]},"properties":{"pname":"地铁2号线","pshort":"2号线","color":"FCD600","ls":"120100021904","name":"靖江路","en":"jing jiang lu"}},{"type":"Feature","geometry":{"type":"Point","coordinates":[117.22772379618067,39.14039217563225]},"properties":{"pname":"地铁2号线","pshort":"2号线","color":"FCD600","ls":"120100021904","name":"顺驰桥","en":"shun chi qiao"}},{"type":"Feature","geometry":{"type":"Point","coordinates":[117.21471369482224,39.13548202122262]},"properties":{"pname":"地铁2号线","pshort":"2号线","color":"FCD600","ls":"120100021904","name":"远洋国际中心","en":"yuan yang guo ji zhong xin"}},{"type":"Feature","geometry":{"type":"Point","coordinates":[117.20539503617643,39.136751803424694]},"properties":{"pname":"地铁2号线","pshort":"2号线","color":"FCD600","ls":"120100021904","name":"天津站","en":"tian jin zhan"}},{"type":"Feature","geometry":{"type":"Point","coordinates":[117.19468553522935,39.13795124514381]},"properties":{"pname":"地铁2号线","pshort":"2号线","color":"FCD600","ls":"120100021904","name":"建国道","en":"jian guo dao"}},{"type":"Feature","geometry":{"type":"Point","coordinates":[117.18396003656726,39.135814720885975]},"properties":{"pname":"地铁2号线","pshort":"2号线","color":"FCD600","ls":"120100021904","name":"东南角","en":"dong nan jiao"}},{"type":"Feature","geometry":{"type":"Point","coordinates":[117.17487807550499,39.13604377983971]},"properties":{"pname":"地铁2号线","pshort":"2号线","color":"FCD600","ls":"120100021904","name":"鼓楼","en":"gu lou"}},{"type":"Feature","geometry":{"type":"Point","coordinates":[117.15561443492707,39.13658089928608]},"properties":{"pname":"地铁2号线","pshort":"2号线","color":"FCD600","ls":"120100021904","name":"广开四马路","en":"guang kai si ma lu"}},{"type":"Feature","geometry":{"type":"Point","coordinates":[117.14303817902177,39.13666582989153]},"properties":{"pname":"地铁2号线","pshort":"2号线","color":"FCD600","ls":"120100021904","name":"长虹公园","en":"chang hong gong yuan"}},{"type":"Feature","geometry":{"type":"Point","coordinates":[117.12857667467838,39.1366400610164]},"properties":{"pname":"地铁2号线","pshort":"2号线","color":"FCD600","ls":"120100021904","name":"咸阳路","en":"xian yang lu"}},{"type":"Feature","geometry":{"type":"Point","coordinates":[117.11356695055765,39.141523538354505]},"properties":{"pname":"地铁2号线","pshort":"2号线","color":"FCD600","ls":"120100021904","name":"芥园西道","en":"jie yuan xi dao"}},{"type":"Feature","geometry":{"type":"Point","coordinates":[117.10256695821093,39.14501696658861]},"properties":{"pname":"地铁2号线","pshort":"2号线","color":"FCD600","ls":"120100021904","name":"卞兴","en":"bian xing"}},{"type":"Feature","geometry":{"type":"Point","coordinates":[117.08453638890089,39.144521209383264]},"properties":{"pname":"地铁2号线","pshort":"2号线","color":"FCD600","ls":"120100021904","name":"曹庄","en":"cao zhuang"}},{"type":"Feature","geometry":{"type":"Point","coordinates":[117.2513539938464,39.23813010440207]},"properties":{"pname":"地铁3号线","pshort":"3号线","color":"019AC3","ls":"120100021500","name":"小淀","en":"xiao dian"}},{"type":"Feature","geometry":{"type":"Point","coordinates":[117.22973261471225,39.2370975033302]},"properties":{"pname":"地铁3号线","pshort":"3号线","color":"019AC3","ls":"120100021500","name":"丰产河","en":"feng chan he"}},{"type":"Feature","geometry":{"type":"Point","coordinates":[117.22170879382392,39.226536488416556]},"properties":{"pname":"地铁3号线","pshort":"3号线","color":"019AC3","ls":"120100021500","name":"华北集团","en":"hua bei ji tuan"}},{"type":"Feature","geometry":{"type":"Point","coordinates":[117.20869782673306,39.2048333253019]},"properties":{"pname":"地铁3号线","pshort":"3号线","color":"019AC3","ls":"120100021500","name":"天士力","en":"tian shi li"}},{"type":"Feature","geometry":{"type":"Point","coordinates":[117.21270374529368,39.196543393298505]},"properties":{"pname":"地铁3号线","pshort":"3号线","color":"019AC3","ls":"120100021500","name":"宜兴埠","en":"yi xing bu"}},{"type":"Feature","geometry":{"type":"Point","coordinates":[117.2085193655535,39.190869148364605]},"properties":{"pname":"地铁3号线","pshort":"3号线","color":"019AC3","ls":"120100021500","name":"张兴庄","en":"zhang xing zhuang"}},{"type":"Feature","geometry":{"type":"Point","coordinates":[117.20068988975203,39.17883664451782]},"properties":{"pname":"地铁3号线","pshort":"3号线","color":"019AC3","ls":"120100021500","name":"铁东路","en":"tie dong lu"}},{"type":"Feature","geometry":{"type":"Point","coordinates":[117.20113023095931,39.16559314023978]},"properties":{"pname":"地铁3号线","pshort":"3号线","color":"019AC3","ls":"120100021500","name":"北站","en":"bei zhan"}},{"type":"Feature","geometry":{"type":"Point","coordinates":[117.19969065421685,39.160745760826806]},"properties":{"pname":"地铁3号线","pshort":"3号线","color":"019AC3","ls":"120100021500","name":"中山路","en":"zhong shan lu"}},{"type":"Feature","geometry":{"type":"Point","coordinates":[117.20169504141717,39.15005526693968]},"properties":{"pname":"地铁3号线","pshort":"3号线","color":"019AC3","ls":"120100021500","name":"金狮桥","en":"jin shi qiao"}},{"type":"Feature","geometry":{"type":"Point","coordinates":[117.20169745828714,39.13096675503148]},"properties":{"pname":"地铁3号线","pshort":"3号线","color":"019AC3","ls":"120100021500","name":"津湾广场","en":"jin wan guang chang"}},{"type":"Feature","geometry":{"type":"Point","coordinates":[117.19869351885929,39.125865122348436]},"properties":{"pname":"地铁3号线","pshort":"3号线","color":"019AC3","ls":"120100021500","name":"和平路","en":"he ping lu"}},{"type":"Feature","geometry":{"type":"Point","coordinates":[117.18166594509417,39.111144492654006]},"properties":{"pname":"地铁3号线","pshort":"3号线","color":"019AC3","ls":"120100021500","name":"西康路","en":"xi kang lu"}},{"type":"Feature","geometry":{"type":"Point","coordinates":[117.1796637964137,39.09874837443058]},"properties":{"pname":"地铁3号线","pshort":"3号线","color":"019AC3","ls":"120100021500","name":"吴家窑","en":"wu jia yao"}},{"type":"Feature","geometry":{"type":"Point","coordinates":[117.17164922029542,39.09473586603406]},"properties":{"pname":"地铁3号线","pshort":"3号线","color":"019AC3","ls":"120100021500","name":"天塔","en":"tian ta"}},{"type":"Feature","geometry":{"type":"Point","coordinates":[117.15762369716798,39.09161185936739]},"properties":{"pname":"地铁3号线","pshort":"3号线","color":"019AC3","ls":"120100021500","name":"周邓纪念馆","en":"zhou deng ji nian guan"}},{"type":"Feature","geometry":{"type":"Point","coordinates":[117.14174707867127,39.091642253335]},"properties":{"pname":"地铁3号线","pshort":"3号线","color":"019AC3","ls":"120100021500","name":"红旗南路","en":"hong qi nan lu"}},{"type":"Feature","geometry":{"type":"Point","coordinates":[117.1325866080791,39.09097276972415]},"properties":{"pname":"地铁3号线","pshort":"3号线","color":"019AC3","ls":"120100021500","name":"王顶堤","en":"wang ding di"}},{"type":"Feature","geometry":{"type":"Point","coordinates":[117.12257826726383,39.086064494752975]},"properties":{"pname":"地铁3号线","pshort":"3号线","color":"019AC3","ls":"120100021500","name":"华苑","en":"hua yuan"}},{"type":"Feature","geometry":{"type":"Point","coordinates":[117.10557562636076,39.071262652728386]},"properties":{"pname":"地铁3号线","pshort":"3号线","color":"019AC3","ls":"120100021500","name":"大学城","en":"da xue cheng"}},{"type":"Feature","geometry":{"type":"Point","coordinates":[117.09258264670609,39.07076263143979]},"properties":{"pname":"地铁3号线","pshort":"3号线","color":"019AC3","ls":"120100021500","name":"高新区","en":"gao xin qu"}},{"type":"Feature","geometry":{"type":"Point","coordinates":[117.07261230189641,39.07077677753266]},"properties":{"pname":"地铁3号线","pshort":"3号线","color":"019AC3","ls":"120100021500","name":"学府工业区","en":"xue fu gong ye qu"}},{"type":"Feature","geometry":{"type":"Point","coordinates":[117.06363351874585,39.067191099856466]},"properties":{"pname":"地铁3号线","pshort":"3号线","color":"019AC3","ls":"120100021500","name":"杨伍庄","en":"yang wu zhuang"}},{"type":"Feature","geometry":{"type":"Point","coordinates":[117.05575772156023,39.05594942199363]},"properties":{"pname":"地铁3号线","pshort":"3号线","color":"019AC3","ls":"120100021500","name":"南站","en":"nan zhan"}},{"type":"Feature","geometry":{"type":"Point","coordinates":[117.178409147366,39.04585160965414]},"properties":{"pname":"地铁5号线","pshort":"5号线","color":"EE782E","ls":"120100021323","name":"中医一附院","en":"zhong yi yi fu yuan"}},{"type":"Feature","geometry":{"type":"Point","coordinates":[117.17844199459768,39.05545274528079]},"properties":{"pname":"地铁5号线","pshort":"5号线","color":"EE782E","ls":"120100021323","name":"昌凌路","en":"chang ling lu"}},{"type":"Feature","geometry":{"type":"Point","coordinates":[117.16565146990715,39.066998707154674]},"properties":{"pname":"地铁5号线","pshort":"5号线","color":"EE782E","ls":"120100021323","name":"凌宾路","en":"ling bin lu"}},{"type":"Feature","geometry":{"type":"Point","coordinates":[117.16609945880234,39.07367043015322]},"properties":{"pname":"地铁5号线","pshort":"5号线","color":"EE782E","ls":"120100021323","name":"体育中心","en":"ti yu zhong xin"}},{"type":"Feature","geometry":{"type":"Point","coordinates":[117.17813256724999,39.07795430042222]},"properties":{"pname":"地铁5号线","pshort":"5号线","color":"EE782E","ls":"120100021323","name":"肿瘤医院","en":"zhong liu yi yuan"}},{"type":"Feature","geometry":{"type":"Point","coordinates":[117.19223620499368,39.08430977912281]},"properties":{"pname":"地铁5号线","pshort":"5号线","color":"EE782E","ls":"120100021323","name":"天津宾馆","en":"tian jin bin guan"}},{"type":"Feature","geometry":{"type":"Point","coordinates":[117.20063017212784,39.08886877165813]},"properties":{"pname":"地铁5号线","pshort":"5号线","color":"EE782E","ls":"120100021323","name":"文化中心","en":"wen hua zhong xin"}},{"type":"Feature","geometry":{"type":"Point","coordinates":[117.20977313332246,39.094430693059]},"properties":{"pname":"地铁5号线","pshort":"5号线","color":"EE782E","ls":"120100021323","name":"西南楼","en":"xi nan lou"}},{"type":"Feature","geometry":{"type":"Point","coordinates":[117.22765258237801,39.110022528334945]},"properties":{"pname":"地铁5号线","pshort":"5号线","color":"EE782E","ls":"120100021323","name":"直沽","en":"zhi gu"}},{"type":"Feature","geometry":{"type":"Point","coordinates":[117.23512585744541,39.11554514880701]},"properties":{"pname":"地铁5号线","pshort":"5号线","color":"EE782E","ls":"120100021323","name":"津塘路","en":"jin tang lu"}},{"type":"Feature","geometry":{"type":"Point","coordinates":[117.23935469042166,39.12930572687972]},"properties":{"pname":"地铁5号线","pshort":"5号线","color":"EE782E","ls":"120100021323","name":"成林道","en":"cheng lin dao"}},{"type":"Feature","geometry":{"type":"Point","coordinates":[117.23791558948066,39.15311482402867]},"properties":{"pname":"地铁5号线","pshort":"5号线","color":"EE782E","ls":"120100021323","name":"幸福公园","en":"xing fu gong yuan"}},{"type":"Feature","geometry":{"type":"Point","coordinates":[117.23951234984926,39.163778118224684]},"properties":{"pname":"地铁5号线","pshort":"5号线","color":"EE782E","ls":"120100021323","name":"月牙河","en":"yue ya he"}},{"type":"Feature","geometry":{"type":"Point","coordinates":[117.23561496045865,39.171114043309636]},"properties":{"pname":"地铁5号线","pshort":"5号线","color":"EE782E","ls":"120100021323","name":"金钟河大街","en":"jin zhong he da jie"}},{"type":"Feature","geometry":{"type":"Point","coordinates":[117.22836332409867,39.178597953704575]},"properties":{"pname":"地铁5号线","pshort":"5号线","color":"EE782E","ls":"120100021323","name":"建昌道","en":"jian chang dao"}},{"type":"Feature","geometry":{"type":"Point","coordinates":[117.22117694644912,39.182349328014446]},"properties":{"pname":"地铁5号线","pshort":"5号线","color":"EE782E","ls":"120100021323","name":"思源路","en":"si yuan lu"}},{"type":"Feature","geometry":{"type":"Point","coordinates":[117.21283722366738,39.18606565022672]},"properties":{"pname":"地铁5号线","pshort":"5号线","color":"EE782E","ls":"120100021323","name":"志成路","en":"zhi cheng lu"}},{"type":"Feature","geometry":{"type":"Point","coordinates":[117.19910953332388,39.20195870715196]},"properties":{"pname":"地铁5号线","pshort":"5号线","color":"EE782E","ls":"120100021323","name":"宜兴埠北","en":"yi xing bu bei"}},{"type":"Feature","geometry":{"type":"Point","coordinates":[117.19367488802101,39.20865892154527]},"properties":{"pname":"地铁5号线","pshort":"5号线","color":"EE782E","ls":"120100021323","name":"辽河北道","en":"liao he bei dao"}},{"type":"Feature","geometry":{"type":"Point","coordinates":[117.18614463284496,39.21746774162702]},"properties":{"pname":"地铁5号线","pshort":"5号线","color":"EE782E","ls":"120100021323","name":"淮河道","en":"huai he dao"}},{"type":"Feature","geometry":{"type":"Point","coordinates":[117.17561151451304,39.22989735580806]},"properties":{"pname":"地铁5号线","pshort":"5号线","color":"EE782E","ls":"120100021323","name":"职业大学","en":"zhi ye da xue"}},{"type":"Feature","geometry":{"type":"Point","coordinates":[117.16727854961819,39.23948340874757]},"properties":{"pname":"地铁5号线","pshort":"5号线","color":"EE782E","ls":"120100021323","name":"北辰道","en":"bei chen dao"}},{"type":"Feature","geometry":{"type":"Point","coordinates":[117.15725366072813,39.25124852996005]},"properties":{"pname":"地铁5号线","pshort":"5号线","color":"EE782E","ls":"120100021323","name":"丹河北道","en":"dan he bei dao"}},{"type":"Feature","geometry":{"type":"Point","coordinates":[117.14346714630078,39.26666191179403]},"properties":{"pname":"地铁5号线","pshort":"5号线","color":"EE782E","ls":"120100021323","name":"北辰科技园北","en":"bei chen ke ji yuan bei"}},{"type":"Feature","geometry":{"type":"Point","coordinates":[117.3119600612869,39.20542528952352]},"properties":{"pname":"地铁6号线","pshort":"6号线","color":"A61D7F","ls":"120100021325","name":"南孙庄","en":"nan sun zhuang"}},{"type":"Feature","geometry":{"type":"Point","coordinates":[117.28468921220328,39.20529204370365]},"properties":{"pname":"地铁6号线","pshort":"6号线","color":"A61D7F","ls":"120100021325","name":"南何庄","en":"nan he zhuang"}},{"type":"Feature","geometry":{"type":"Point","coordinates":[117.27283842371365,39.20195242381544]},"properties":{"pname":"地铁6号线","pshort":"6号线","color":"A61D7F","ls":"120100021325","name":"大毕庄","en":"da bi zhuang"}},{"type":"Feature","geometry":{"type":"Point","coordinates":[117.25981178453019,39.198844398523505]},"properties":{"pname":"地铁6号线","pshort":"6号线","color":"A61D7F","ls":"120100021325","name":"金钟街","en":"jin zhong jie"}},{"type":"Feature","geometry":{"type":"Point","coordinates":[117.24787365336795,39.1898955783185]},"properties":{"pname":"地铁6号线","pshort":"6号线","color":"A61D7F","ls":"120100021325","name":"徐庄子","en":"xu zhuang zi"}},{"type":"Feature","geometry":{"type":"Point","coordinates":[117.22710200447025,39.1676334132675]},"properties":{"pname":"地铁6号线","pshort":"6号线","color":"A61D7F","ls":"120100021325","name":"民权门","en":"min quan men"}},{"type":"Feature","geometry":{"type":"Point","coordinates":[117.21687117290145,39.16524075869019]},"properties":{"pname":"地铁6号线","pshort":"6号线","color":"A61D7F","ls":"120100021325","name":"北宁公园","en":"bei ning gong yuan"}},{"type":"Feature","geometry":{"type":"Point","coordinates":[117.19653177342566,39.167813473215624]},"properties":{"pname":"地铁6号线","pshort":"6号线","color":"A61D7F","ls":"120100021325","name":"新开河","en":"xin kai he"}},{"type":"Feature","geometry":{"type":"Point","coordinates":[117.18549546899519,39.1701819771217]},"properties":{"pname":"地铁6号线","pshort":"6号线","color":"A61D7F","ls":"120100021325","name":"外院附中","en":"wai yuan fu zhong"}},{"type":"Feature","geometry":{"type":"Point","coordinates":[117.17696706413037,39.167121107379046]},"properties":{"pname":"地铁6号线","pshort":"6号线","color":"A61D7F","ls":"120100021325","name":"天泰路","en":"tian tai lu"}},{"type":"Feature","geometry":{"type":"Point","coordinates":[117.16634004634527,39.15910197888641]},"properties":{"pname":"地铁6号线","pshort":"6号线","color":"A61D7F","ls":"120100021325","name":"北竹林","en":"bei zhu lin"}},{"type":"Feature","geometry":{"type":"Point","coordinates":[117.15145699381593,39.155019594401764]},"properties":{"pname":"地铁6号线","pshort":"6号线","color":"A61D7F","ls":"120100021325","name":"复兴路","en":"fu xing lu"}},{"type":"Feature","geometry":{"type":"Point","coordinates":[117.14330534318381,39.14624748378876]},"properties":{"pname":"地铁6号线","pshort":"6号线","color":"A61D7F","ls":"120100021325","name":"人民医院","en":"ren min yi yuan"}},{"type":"Feature","geometry":{"type":"Point","coordinates":[117.14291645675601,39.12528352236632]},"properties":{"pname":"地铁6号线","pshort":"6号线","color":"A61D7F","ls":"120100021325","name":"宜宾道","en":"yi bin dao"}},{"type":"Feature","geometry":{"type":"Point","coordinates":[117.14296178417199,39.11540259513633]},"properties":{"pname":"地铁6号线","pshort":"6号线","color":"A61D7F","ls":"120100021325","name":"鞍山西道","en":"an shan xi dao"}},{"type":"Feature","geometry":{"type":"Point","coordinates":[117.14303582352912,39.10810116080981]},"properties":{"pname":"地铁6号线","pshort":"6号线","color":"A61D7F","ls":"120100021325","name":"天拖","en":"tian tuo"}},{"type":"Feature","geometry":{"type":"Point","coordinates":[117.14305262317407,39.10202589914096]},"properties":{"pname":"地铁6号线","pshort":"6号线","color":"A61D7F","ls":"120100021325","name":"一中心医院","en":"yi zhong xin yi yuan"}},{"type":"Feature","geometry":{"type":"Point","coordinates":[117.1430688126077,39.085044336676845]},"properties":{"pname":"地铁6号线","pshort":"6号线","color":"A61D7F","ls":"120100021325","name":"迎风道","en":"ying feng dao"}},{"type":"Feature","geometry":{"type":"Point","coordinates":[117.15225603722293,39.078874229608445]},"properties":{"pname":"地铁6号线","pshort":"6号线","color":"A61D7F","ls":"120100021325","name":"南翠屏","en":"nan cui ping"}},{"type":"Feature","geometry":{"type":"Point","coordinates":[117.16677511546258,39.07844574963946]},"properties":{"pname":"地铁6号线","pshort":"6号线","color":"A61D7F","ls":"120100021325","name":"水上公园东路","en":"shui shang gong yuan dong lu"}},{"type":"Feature","geometry":{"type":"Point","coordinates":[117.21121942507054,39.09025717181539]},"properties":{"pname":"地铁6号线","pshort":"6号线","color":"A61D7F","ls":"120100021325","name":"乐园道","en":"le yuan dao"}},{"type":"Feature","geometry":{"type":"Point","coordinates":[117.21772296690098,39.086251533864825]},"properties":{"pname":"地铁6号线","pshort":"6号线","color":"A61D7F","ls":"120100021325","name":"尖山路","en":"jian shan lu"}},{"type":"Feature","geometry":{"type":"Point","coordinates":[117.2177667685741,39.080216293451805]},"properties":{"pname":"地铁6号线","pshort":"6号线","color":"A61D7F","ls":"120100021325","name":"黑牛城道","en":"hei niu cheng dao"}},{"type":"Feature","geometry":{"type":"Point","coordinates":[117.21933578671998,39.067838633343015]},"properties":{"pname":"地铁6号线","pshort":"6号线","color":"A61D7F","ls":"120100021325","name":"梅江道","en":"mei jiang dao"}},{"type":"Feature","geometry":{"type":"Point","coordinates":[117.21146064334765,39.059034708949106]},"properties":{"pname":"地铁6号线","pshort":"6号线","color":"A61D7F","ls":"120100021325","name":"左江道","en":"zuo jiang dao"}},{"type":"Feature","geometry":{"type":"Point","coordinates":[117.21127839160913,39.05136020737243]},"properties":{"pname":"地铁6号线","pshort":"6号线","color":"A61D7F","ls":"120100021325","name":"梅江公园","en":"mei jiang gong yuan"}},{"type":"Feature","geometry":{"type":"Point","coordinates":[117.21144760084333,39.04334637428228]},"properties":{"pname":"地铁6号线","pshort":"6号线","color":"A61D7F","ls":"120100021325","name":"梅江会展中心","en":"mei jiang hui zhan zhong xin"}},{"type":"Feature","geometry":{"type":"Point","coordinates":[117.22775146476421,39.03980279783033]},"properties":{"pname":"地铁6号线","pshort":"6号线","color":"A61D7F","ls":"120100021325","name":"解放南路","en":"jie fang nan lu"}},{"type":"Feature","geometry":{"type":"Point","coordinates":[117.23961570945016,39.04264997702624]},"properties":{"pname":"地铁6号线","pshort":"6号线","color":"A61D7F","ls":"120100021325","name":"洞庭路","en":"dong ting lu"}},{"type":"Feature","geometry":{"type":"Point","coordinates":[117.24851779680182,39.043880021249144]},"properties":{"pname":"地铁6号线","pshort":"6号线","color":"A61D7F","ls":"120100021325","name":"梅林路","en":"mei lin lu"}},{"type":"Feature","geometry":{"type":"Point","coordinates":[117.730986549272,39.03962989552034]},"properties":{"pname":"津滨轻轨9号线","pshort":"9号线","color":"2249A3","ls":"120100031870","name":"东海路","en":"dong hai lu"}},{"type":"Feature","geometry":{"type":"Point","coordinates":[117.72540206852854,39.0290590210558]},"properties":{"pname":"津滨轻轨9号线","pshort":"9号线","color":"2249A3","ls":"120100031870","name":"会展中心","en":"hui zhan zhong xin"}},{"type":"Feature","geometry":{"type":"Point","coordinates":[117.71723292411805,39.018970831721596]},"properties":{"pname":"津滨轻轨9号线","pshort":"9号线","color":"2249A3","ls":"120100031870","name":"太湖路","en":"tai hu lu"}},{"type":"Feature","geometry":{"type":"Point","coordinates":[117.69680647621462,39.017298504468975]},"properties":{"pname":"津滨轻轨9号线","pshort":"9号线","color":"2249A3","ls":"120100031870","name":"市民广场","en":"shi min guang chang"}},{"type":"Feature","geometry":{"type":"Point","coordinates":[117.67317838140193,39.024573385153374]},"properties":{"pname":"津滨轻轨9号线","pshort":"9号线","color":"2249A3","ls":"120100031870","name":"泰达","en":"tai da"}},{"type":"Feature","geometry":{"type":"Point","coordinates":[117.65493705808943,39.02863724404388]},"properties":{"pname":"津滨轻轨9号线","pshort":"9号线","color":"2249A3","ls":"120100031870","name":"塘沽","en":"tang gu"}},{"type":"Feature","geometry":{"type":"Point","coordinates":[117.60127549182164,39.0397635429996]},"properties":{"pname":"津滨轻轨9号线","pshort":"9号线","color":"2249A3","ls":"120100031870","name":"胡家园","en":"hu jia yuan"}},{"type":"Feature","geometry":{"type":"Point","coordinates":[117.4975477827834,39.038822388102425]},"properties":{"pname":"津滨轻轨9号线","pshort":"9号线","color":"2249A3","ls":"120100031870","name":"钢管公司","en":"gang guan gong si"}},{"type":"Feature","geometry":{"type":"Point","coordinates":[117.44960028324404,39.04696768260665]},"properties":{"pname":"津滨轻轨9号线","pshort":"9号线","color":"2249A3","ls":"120100031870","name":"军粮城","en":"jun liang cheng"}},{"type":"Feature","geometry":{"type":"Point","coordinates":[117.39678841877975,39.06325754709311]},"properties":{"pname":"津滨轻轨9号线","pshort":"9号线","color":"2249A3","ls":"120100031870","name":"小东庄","en":"xiao dong zhuang"}},{"type":"Feature","geometry":{"type":"Point","coordinates":[117.35093914844289,39.078304745272604]},"properties":{"pname":"津滨轻轨9号线","pshort":"9号线","color":"2249A3","ls":"120100031870","name":"东丽开发区","en":"dong li kai fa qu"}},{"type":"Feature","geometry":{"type":"Point","coordinates":[117.32957770378083,39.08480919244894]},"properties":{"pname":"津滨轻轨9号线","pshort":"9号线","color":"2249A3","ls":"120100031870","name":"新立","en":"xin li"}},{"type":"Feature","geometry":{"type":"Point","coordinates":[117.30139609628291,39.09109596342198]},"properties":{"pname":"津滨轻轨9号线","pshort":"9号线","color":"2249A3","ls":"120100031870","name":"张贵庄","en":"zhang gui zhuang"}},{"type":"Feature","geometry":{"type":"Point","coordinates":[117.28683297316064,39.09418365844171]},"properties":{"pname":"津滨轻轨9号线","pshort":"9号线","color":"2249A3","ls":"120100031870","name":"二号桥","en":"er hao qiao"}},{"type":"Feature","geometry":{"type":"Point","coordinates":[117.27660394902644,39.09511379150801]},"properties":{"pname":"津滨轻轨9号线","pshort":"9号线","color":"2249A3","ls":"120100031870","name":"一号桥","en":"yi hao qiao"}},{"type":"Feature","geometry":{"type":"Point","coordinates":[117.25805883041865,39.09989314317031]},"properties":{"pname":"津滨轻轨9号线","pshort":"9号线","color":"2249A3","ls":"120100031870","name":"中山门","en":"zhong shan men"}},{"type":"Feature","geometry":{"type":"Point","coordinates":[117.23630174621593,39.10244274798523]},"properties":{"pname":"津滨轻轨9号线","pshort":"9号线","color":"2249A3","ls":"120100031870","name":"东兴路","en":"dong xing lu"}},{"type":"Feature","geometry":{"type":"Point","coordinates":[117.21765760649498,39.120368603796486]},"properties":{"pname":"津滨轻轨9号线","pshort":"9号线","color":"2249A3","ls":"120100031870","name":"十一经路","en":"shi yi jing lu"}},{"type":"Feature","geometry":{"type":"Point","coordinates":[117.21218303016853,39.12620947757077]},"properties":{"pname":"津滨轻轨9号线","pshort":"9号线","color":"2249A3","ls":"120100031870","name":"大王庄","en":"da wang zhuang"}}]}