{"type":"FeatureCollection","features":[{"type":"Feature","geometry":{"type":"Point","coordinates":[120.31028757409835,31.677439811425963]},"properties":{"pname":"地铁1号线","pshort":"1号线","color":"EE3F42","ls":"320200021334","name":"堰桥","en":"YanQiao"}},{"type":"Feature","geometry":{"type":"Point","coordinates":[120.31025676968352,31.66415720883669]},"properties":{"pname":"地铁1号线","pshort":"1号线","color":"EE3F42","ls":"320200021334","name":"锡北运河","en":"Xi BeiYunHe"}},{"type":"Feature","geometry":{"type":"Point","coordinates":[120.29904265346097,31.64773572313673]},"properties":{"pname":"地铁1号线","pshort":"1号线","color":"EE3F42","ls":"320200021334","name":"西漳","en":"XiZhang"}},{"type":"Feature","geometry":{"type":"Point","coordinates":[120.29973953112464,31.639737442975445]},"properties":{"pname":"地铁1号线","pshort":"1号线","color":"EE3F42","ls":"320200021334","name":"天一","en":"TianYi"}},{"type":"Feature","geometry":{"type":"Point","coordinates":[120.29980042962187,31.62851823554101]},"properties":{"pname":"地铁1号线","pshort":"1号线","color":"EE3F42","ls":"320200021334","name":"刘潭","en":"LiuTan"}},{"type":"Feature","geometry":{"type":"Point","coordinates":[120.30029329666463,31.611731541588014]},"properties":{"pname":"地铁1号线","pshort":"1号线","color":"EE3F42","ls":"320200021334","name":"庄前","en":"ZhuangQian"}},{"type":"Feature","geometry":{"type":"Point","coordinates":[120.29893765498326,31.602849905962064]},"properties":{"pname":"地铁1号线","pshort":"1号线","color":"EE3F42","ls":"320200021334","name":"民丰","en":"MinFeng"}},{"type":"Feature","geometry":{"type":"Point","coordinates":[120.30216279232998,31.59130304095072]},"properties":{"pname":"地铁1号线","pshort":"1号线","color":"EE3F42","ls":"320200021334","name":"无锡火车站","en":"WuXi HuoCheZhan"}},{"type":"Feature","geometry":{"type":"Point","coordinates":[120.29530531560317,31.583852254653557]},"properties":{"pname":"地铁1号线","pshort":"1号线","color":"EE3F42","ls":"320200021334","name":"胜利门","en":"ShengLiMen"}},{"type":"Feature","geometry":{"type":"Point","coordinates":[120.29521993675438,31.5776947052146]},"properties":{"pname":"地铁1号线","pshort":"1号线","color":"EE3F42","ls":"320200021334","name":"三阳广场","en":"SanYang GuangChang"}},{"type":"Feature","geometry":{"type":"Point","coordinates":[120.30155942659124,31.569379194913115]},"properties":{"pname":"地铁1号线","pshort":"1号线","color":"EE3F42","ls":"320200021334","name":"南禅寺","en":"NanChanSi"}},{"type":"Feature","geometry":{"type":"Point","coordinates":[120.3005311382192,31.563949253537743]},"properties":{"pname":"地铁1号线","pshort":"1号线","color":"EE3F42","ls":"320200021334","name":"谈渡桥","en":"TanDu Qiao"}},{"type":"Feature","geometry":{"type":"Point","coordinates":[120.3006126319636,31.557093646978814]},"properties":{"pname":"地铁1号线","pshort":"1号线","color":"EE3F42","ls":"320200021334","name":"太湖广场","en":"TaiHu GuangChang"}},{"type":"Feature","geometry":{"type":"Point","coordinates":[120.30669243165686,31.551129906834078]},"properties":{"pname":"地铁1号线","pshort":"1号线","color":"EE3F42","ls":"320200021334","name":"清名桥","en":"QingMingQiao"}},{"type":"Feature","geometry":{"type":"Point","coordinates":[120.31468282687969,31.543808242196235]},"properties":{"pname":"地铁1号线","pshort":"1号线","color":"EE3F42","ls":"320200021334","name":"人民医院","en":"RenMin YiYuan"}},{"type":"Feature","geometry":{"type":"Point","coordinates":[120.32335937913406,31.535660765314322]},"properties":{"pname":"地铁1号线","pshort":"1号线","color":"EE3F42","ls":"320200021334","name":"华清大桥","en":"HuaQing DaQiao"}},{"type":"Feature","geometry":{"type":"Point","coordinates":[120.31987683748045,31.522991833327794]},"properties":{"pname":"地铁1号线","pshort":"1号线","color":"EE3F42","ls":"320200021334","name":"扬名","en":"YangMing"}},{"type":"Feature","geometry":{"type":"Point","coordinates":[120.31954532224783,31.51165893389302]},"properties":{"pname":"地铁1号线","pshort":"1号线","color":"EE3F42","ls":"320200021334","name":"南湖家园","en":"NanHu JiaYuan"}},{"type":"Feature","geometry":{"type":"Point","coordinates":[120.32126446947426,31.502651969632407]},"properties":{"pname":"地铁1号线","pshort":"1号线","color":"EE3F42","ls":"320200021334","name":"塘铁桥","en":"TangTieQiao"}},{"type":"Feature","geometry":{"type":"Point","coordinates":[120.31559366810777,31.495348730916906]},"properties":{"pname":"地铁1号线","pshort":"1号线","color":"EE3F42","ls":"320200021334","name":"金匮公园","en":"JinKui GongYuan"}},{"type":"Feature","geometry":{"type":"Point","coordinates":[120.30056420996009,31.493009453588584]},"properties":{"pname":"地铁1号线","pshort":"1号线","color":"EE3F42","ls":"320200021334","name":"市民中心","en":"ShiMin ZhongXin"}},{"type":"Feature","geometry":{"type":"Point","coordinates":[120.2865992555506,31.49194308863903]},"properties":{"pname":"地铁1号线","pshort":"1号线","color":"EE3F42","ls":"320200021334","name":"文化宫","en":"WenHuaGong"}},{"type":"Feature","geometry":{"type":"Point","coordinates":[120.27419064886449,31.485876711194766]},"properties":{"pname":"地铁1号线","pshort":"1号线","color":"EE3F42","ls":"320200021334","name":"江南大学","en":"JiangNan DaXue"}},{"type":"Feature","geometry":{"type":"Point","coordinates":[120.27281694831316,31.475312775081342]},"properties":{"pname":"地铁1号线","pshort":"1号线","color":"EE3F42","ls":"320200021334","name":"长广溪","en":"ChangGuangXi"}},{"type":"Feature","geometry":{"type":"Point","coordinates":[120.27505241988567,31.46188135510793]},"properties":{"pname":"地铁1号线","pshort":"1号线","color":"EE3F42","ls":"320200021334","name":"雪浪","en":"XueLang"}},{"type":"Feature","geometry":{"type":"Point","coordinates":[120.26965875066409,31.449724383887546]},"properties":{"pname":"地铁1号线","pshort":"1号线","color":"EE3F42","ls":"320200021334","name":"葛埭桥","en":"GeDai Qiao"}},{"type":"Feature","geometry":{"type":"Point","coordinates":[120.26570785308085,31.438841454513202]},"properties":{"pname":"地铁1号线","pshort":"1号线","color":"EE3F42","ls":"320200021334","name":"南方泉","en":"NanFang Quan"}},{"type":"Feature","geometry":{"type":"Point","coordinates":[120.45551364035788,31.598799058506838]},"properties":{"pname":"地铁2号线","pshort":"2号线","color":"00AB4F","ls":"900000029089","name":"无锡东站","en":"WuXi DongZhan"}},{"type":"Feature","geometry":{"type":"Point","coordinates":[120.44985326275776,31.593423181689328]},"properties":{"pname":"地铁2号线","pshort":"2号线","color":"00AB4F","ls":"900000029089","name":"迎宾广场","en":"YingBin GuangChang"}},{"type":"Feature","geometry":{"type":"Point","coordinates":[120.44506440728306,31.589018053061775]},"properties":{"pname":"地铁2号线","pshort":"2号线","color":"00AB4F","ls":"900000029089","name":"映月湖公园","en":"YingYueHu GongYuan"}},{"type":"Feature","geometry":{"type":"Point","coordinates":[120.426702801488,31.58289017075344]},"properties":{"pname":"地铁2号线","pshort":"2号线","color":"00AB4F","ls":"900000029089","name":"查桥","en":"ZhaQiao"}},{"type":"Feature","geometry":{"type":"Point","coordinates":[120.40391709479206,31.58213103344317]},"properties":{"pname":"地铁2号线","pshort":"2号线","color":"00AB4F","ls":"900000029089","name":"九里河公园","en":"JiuLiHe GongYuan"}},{"type":"Feature","geometry":{"type":"Point","coordinates":[120.39032400662997,31.581296152743555]},"properties":{"pname":"地铁2号线","pshort":"2号线","color":"00AB4F","ls":"900000029089","name":"云林","en":"YunLin"}},{"type":"Feature","geometry":{"type":"Point","coordinates":[120.3743729327139,31.579878279196333]},"properties":{"pname":"地铁2号线","pshort":"2号线","color":"00AB4F","ls":"900000029089","name":"庄桥","en":"ZhuangQiao"}},{"type":"Feature","geometry":{"type":"Point","coordinates":[120.35897916480248,31.583927657544795]},"properties":{"pname":"地铁2号线","pshort":"2号线","color":"00AB4F","ls":"900000029089","name":"东亭","en":"DongTing"}},{"type":"Feature","geometry":{"type":"Point","coordinates":[120.34640843204357,31.58781151698602]},"properties":{"pname":"地铁2号线","pshort":"2号线","color":"00AB4F","ls":"900000029089","name":"柏庄","en":"BaiZhuang"}},{"type":"Feature","geometry":{"type":"Point","coordinates":[120.33669196537139,31.588398377221374]},"properties":{"pname":"地铁2号线","pshort":"2号线","color":"00AB4F","ls":"900000029089","name":"广益","en":"GuangYi"}},{"type":"Feature","geometry":{"type":"Point","coordinates":[120.32577632060443,31.585206337814753]},"properties":{"pname":"地铁2号线","pshort":"2号线","color":"00AB4F","ls":"900000029089","name":"靖海","en":"JingHai"}},{"type":"Feature","geometry":{"type":"Point","coordinates":[120.3161441692032,31.58423760367943]},"properties":{"pname":"地铁2号线","pshort":"2号线","color":"00AB4F","ls":"900000029089","name":"上马墩","en":"ShangMaDun"}},{"type":"Feature","geometry":{"type":"Point","coordinates":[120.30378869569685,31.580372824774145]},"properties":{"pname":"地铁2号线","pshort":"2号线","color":"00AB4F","ls":"900000029089","name":"东林广场","en":"DongLin GuangChang"}},{"type":"Feature","geometry":{"type":"Point","coordinates":[120.28596455441705,31.575546713905176]},"properties":{"pname":"地铁2号线","pshort":"2号线","color":"00AB4F","ls":"900000029089","name":"五爱广场","en":"WuAi GuangChang"}},{"type":"Feature","geometry":{"type":"Point","coordinates":[120.28178696523128,31.56918114848146]},"properties":{"pname":"地铁2号线","pshort":"2号线","color":"00AB4F","ls":"900000029089","name":"梁溪大桥","en":"LiangXi DaQiao"}},{"type":"Feature","geometry":{"type":"Point","coordinates":[120.27108748365887,31.56673970869668]},"properties":{"pname":"地铁2号线","pshort":"2号线","color":"00AB4F","ls":"900000029089","name":"大王基","en":"DaWangJi"}},{"type":"Feature","geometry":{"type":"Point","coordinates":[120.25628277189954,31.56395570151105]},"properties":{"pname":"地铁2号线","pshort":"2号线","color":"00AB4F","ls":"900000029089","name":"河埒口","en":"HeLie Kou"}},{"type":"Feature","geometry":{"type":"Point","coordinates":[120.24488183001097,31.561145335627142]},"properties":{"pname":"地铁2号线","pshort":"2号线","color":"00AB4F","ls":"900000029089","name":"小桃源","en":"Xiao TaoYuan"}},{"type":"Feature","geometry":{"type":"Point","coordinates":[120.23188860604475,31.55858706958596]},"properties":{"pname":"地铁2号线","pshort":"2号线","color":"00AB4F","ls":"900000029089","name":"荣巷","en":"RongXiang"}},{"type":"Feature","geometry":{"type":"Point","coordinates":[120.21494906644818,31.55287256709157]},"properties":{"pname":"地铁2号线","pshort":"2号线","color":"00AB4F","ls":"900000029089","name":"梅园开原寺","en":"MeiYuan KaiYuan Si"}},{"type":"Feature","geometry":{"type":"Point","coordinates":[120.21141205738738,31.598701439678116]},"properties":{"pname":"地铁3号线","pshort":"3号线","color":"01A2E2","ls":"320200021052","name":"苏庙","en":"SuMiao"}},{"type":"Feature","geometry":{"type":"Point","coordinates":[120.22505560323633,31.59843057321954]},"properties":{"pname":"地铁3号线","pshort":"3号线","color":"01A2E2","ls":"320200021052","name":"钱桥","en":"QianQiao"}},{"type":"Feature","geometry":{"type":"Point","coordinates":[120.23941729693207,31.60205970062126]},"properties":{"pname":"地铁3号线","pshort":"3号线","color":"01A2E2","ls":"320200021052","name":"龙山梢","en":"LongShan Shao"}},{"type":"Feature","geometry":{"type":"Point","coordinates":[120.25451084297721,31.599320279713268]},"properties":{"pname":"地铁3号线","pshort":"3号线","color":"01A2E2","ls":"320200021052","name":"石门路","en":"ShiMen Lu"}},{"type":"Feature","geometry":{"type":"Point","coordinates":[120.2652874884755,31.594288265474717]},"properties":{"pname":"地铁3号线","pshort":"3号线","color":"01A2E2","ls":"320200021052","name":"盛岸","en":"ShengAn"}},{"type":"Feature","geometry":{"type":"Point","coordinates":[120.28089620966635,31.595702821914937]},"properties":{"pname":"地铁3号线","pshort":"3号线","color":"01A2E2","ls":"320200021052","name":"吴桥","en":"WuQiao"}},{"type":"Feature","geometry":{"type":"Point","coordinates":[120.29252335586995,31.59295097416425]},"properties":{"pname":"地铁3号线","pshort":"3号线","color":"01A2E2","ls":"320200021052","name":"北栅口","en":"BeiCeKou"}},{"type":"Feature","geometry":{"type":"Point","coordinates":[120.31476964128055,31.590725862434525]},"properties":{"pname":"地铁3号线","pshort":"3号线","color":"01A2E2","ls":"320200021052","name":"广瑞","en":"GuangRui"}},{"type":"Feature","geometry":{"type":"Point","coordinates":[120.32766821089798,31.575365237030404]},"properties":{"pname":"地铁3号线","pshort":"3号线","color":"01A2E2","ls":"320200021052","name":"东风","en":"DongFeng"}},{"type":"Feature","geometry":{"type":"Point","coordinates":[120.33250824871503,31.568079440634257]},"properties":{"pname":"地铁3号线","pshort":"3号线","color":"01A2E2","ls":"320200021052","name":"叙丰","en":"XuFeng"}},{"type":"Feature","geometry":{"type":"Point","coordinates":[120.3393263079395,31.560878076897367]},"properties":{"pname":"地铁3号线","pshort":"3号线","color":"01A2E2","ls":"320200021052","name":"太湖花园","en":"TaiHu HuaYuan"}},{"type":"Feature","geometry":{"type":"Point","coordinates":[120.34780661921778,31.55122244831972]},"properties":{"pname":"地铁3号线","pshort":"3号线","color":"01A2E2","ls":"320200021052","name":"新光路","en":"XinGuang Lu"}},{"type":"Feature","geometry":{"type":"Point","coordinates":[120.35314094994844,31.54393495894682]},"properties":{"pname":"地铁3号线","pshort":"3号线","color":"01A2E2","ls":"320200021052","name":"旺庄路","en":"WangZhuang Lu"}},{"type":"Feature","geometry":{"type":"Point","coordinates":[120.36517596642103,31.53151477326141]},"properties":{"pname":"地铁3号线","pshort":"3号线","color":"01A2E2","ls":"320200021052","name":"黄山路","en":"HuangShan Lu"}},{"type":"Feature","geometry":{"type":"Point","coordinates":[120.3713549558681,31.525117509820458]},"properties":{"pname":"地铁3号线","pshort":"3号线","color":"01A2E2","ls":"320200021052","name":"高浪东路","en":"GaoLang DongLu"}},{"type":"Feature","geometry":{"type":"Point","coordinates":[120.38088390694723,31.515489779295628]},"properties":{"pname":"地铁3号线","pshort":"3号线","color":"01A2E2","ls":"320200021052","name":"周泾巷","en":"ZhouJing Xiang"}},{"type":"Feature","geometry":{"type":"Point","coordinates":[120.38744225066132,31.501147863846576]},"properties":{"pname":"地铁3号线","pshort":"3号线","color":"01A2E2","ls":"320200021052","name":"无锡新区","en":"WuXi XinQu"}},{"type":"Feature","geometry":{"type":"Point","coordinates":[120.39852362186078,31.49915572181655]},"properties":{"pname":"地铁3号线","pshort":"3号线","color":"01A2E2","ls":"320200021052","name":"长江南路","en":"ChangJiang NanLu"}},{"type":"Feature","geometry":{"type":"Point","coordinates":[120.42613863617694,31.50436123822468]},"properties":{"pname":"地铁3号线","pshort":"3号线","color":"01A2E2","ls":"320200021052","name":"硕放机场","en":"ShuoFang JiChang"}}]}