{"type":"FeatureCollection","features":[{"type":"Feature","geometry":{"type":"Point","coordinates":[120.31491,31.675557]},"properties":{"pname":"地铁1号线","pshort":"1号线","color":"EE3F42","ls":"320200021334","name":"堰桥","en":"YanQiao"}},{"type":"Feature","geometry":{"type":"Point","coordinates":[120.314878,31.662275]},"properties":{"pname":"地铁1号线","pshort":"1号线","color":"EE3F42","ls":"320200021334","name":"锡北运河","en":"Xi BeiYunHe"}},{"type":"Feature","geometry":{"type":"Point","coordinates":[120.303648,31.645835]},"properties":{"pname":"地铁1号线","pshort":"1号线","color":"EE3F42","ls":"320200021334","name":"西漳","en":"XiZhang"}},{"type":"Feature","geometry":{"type":"Point","coordinates":[120.304345,31.637838]},"properties":{"pname":"地铁1号线","pshort":"1号线","color":"EE3F42","ls":"320200021334","name":"天一","en":"TianYi"}},{"type":"Feature","geometry":{"type":"Point","coordinates":[120.304405,31.626619]},"properties":{"pname":"地铁1号线","pshort":"1号线","color":"EE3F42","ls":"320200021334","name":"刘潭","en":"LiuTan"}},{"type":"Feature","geometry":{"type":"Point","coordinates":[120.304897,31.609833]},"properties":{"pname":"地铁1号线","pshort":"1号线","color":"EE3F42","ls":"320200021334","name":"庄前","en":"ZhuangQian"}},{"type":"Feature","geometry":{"type":"Point","coordinates":[120.303539,31.600949]},"properties":{"pname":"地铁1号线","pshort":"1号线","color":"EE3F42","ls":"320200021334","name":"民丰","en":"MinFeng"}},{"type":"Feature","geometry":{"type":"Point","coordinates":[120.306767,31.589407]},"properties":{"pname":"地铁1号线","pshort":"1号线","color":"EE3F42","ls":"320200021334","name":"无锡火车站","en":"WuXi HuoCheZhan"}},{"type":"Feature","geometry":{"type":"Point","coordinates":[120.299901,31.581945]},"properties":{"pname":"地铁1号线","pshort":"1号线","color":"EE3F42","ls":"320200021334","name":"胜利门","en":"ShengLiMen"}},{"type":"Feature","geometry":{"type":"Point","coordinates":[120.299815,31.575787]},"properties":{"pname":"地铁1号线","pshort":"1号线","color":"EE3F42","ls":"320200021334","name":"三阳广场","en":"SanYang GuangChang"}},{"type":"Feature","geometry":{"type":"Point","coordinates":[120.306161,31.567481]},"properties":{"pname":"地铁1号线","pshort":"1号线","color":"EE3F42","ls":"320200021334","name":"南禅寺","en":"NanChanSi"}},{"type":"Feature","geometry":{"type":"Point","coordinates":[120.305131,31.562049]},"properties":{"pname":"地铁1号线","pshort":"1号线","color":"EE3F42","ls":"320200021334","name":"谈渡桥","en":"TanDu Qiao"}},{"type":"Feature","geometry":{"type":"Point","coordinates":[120.305212,31.555193]},"properties":{"pname":"地铁1号线","pshort":"1号线","color":"EE3F42","ls":"320200021334","name":"太湖广场","en":"TaiHu GuangChang"}},{"type":"Feature","geometry":{"type":"Point","coordinates":[120.311299,31.549239]},"properties":{"pname":"地铁1号线","pshort":"1号线","color":"EE3F42","ls":"320200021334","name":"清名桥","en":"QingMingQiao"}},{"type":"Feature","geometry":{"type":"Point","coordinates":[120.3193,31.541931]},"properties":{"pname":"地铁1号线","pshort":"1号线","color":"EE3F42","ls":"320200021334","name":"人民医院","en":"RenMin YiYuan"}},{"type":"Feature","geometry":{"type":"Point","coordinates":[120.327989,31.533799]},"properties":{"pname":"地铁1号线","pshort":"1号线","color":"EE3F42","ls":"320200021334","name":"华清大桥","en":"HuaQing DaQiao"}},{"type":"Feature","geometry":{"type":"Point","coordinates":[120.3245,31.521122]},"properties":{"pname":"地铁1号线","pshort":"1号线","color":"EE3F42","ls":"320200021334","name":"扬名","en":"YangMing"}},{"type":"Feature","geometry":{"type":"Point","coordinates":[120.324167,31.509787]},"properties":{"pname":"地铁1号线","pshort":"1号线","color":"EE3F42","ls":"320200021334","name":"南湖家园","en":"NanHu JiaYuan"}},{"type":"Feature","geometry":{"type":"Point","coordinates":[120.325888,31.500782]},"properties":{"pname":"地铁1号线","pshort":"1号线","color":"EE3F42","ls":"320200021334","name":"塘铁桥","en":"TangTieQiao"}},{"type":"Feature","geometry":{"type":"Point","coordinates":[120.320208,31.493467]},"properties":{"pname":"地铁1号线","pshort":"1号线","color":"EE3F42","ls":"320200021334","name":"金匮公园","en":"JinKui GongYuan"}},{"type":"Feature","geometry":{"type":"Point","coordinates":[120.305158,31.491101]},"properties":{"pname":"地铁1号线","pshort":"1号线","color":"EE3F42","ls":"320200021334","name":"市民中心","en":"ShiMin ZhongXin"}},{"type":"Feature","geometry":{"type":"Point","coordinates":[120.291179,31.490014]},"properties":{"pname":"地铁1号线","pshort":"1号线","color":"EE3F42","ls":"320200021334","name":"文化宫","en":"WenHuaGong"}},{"type":"Feature","geometry":{"type":"Point","coordinates":[120.278763,31.483933]},"properties":{"pname":"地铁1号线","pshort":"1号线","color":"EE3F42","ls":"320200021334","name":"江南大学","en":"JiangNan DaXue"}},{"type":"Feature","geometry":{"type":"Point","coordinates":[120.277388,31.473366]},"properties":{"pname":"地铁1号线","pshort":"1号线","color":"EE3F42","ls":"320200021334","name":"长广溪","en":"ChangGuangXi"}},{"type":"Feature","geometry":{"type":"Point","coordinates":[120.279623,31.459934]},"properties":{"pname":"地铁1号线","pshort":"1号线","color":"EE3F42","ls":"320200021334","name":"雪浪","en":"XueLang"}},{"type":"Feature","geometry":{"type":"Point","coordinates":[120.274227,31.44777]},"properties":{"pname":"地铁1号线","pshort":"1号线","color":"EE3F42","ls":"320200021334","name":"葛埭桥","en":"GeDai Qiao"}},{"type":"Feature","geometry":{"type":"Point","coordinates":[120.270275,31.436882]},"properties":{"pname":"地铁1号线","pshort":"1号线","color":"EE3F42","ls":"320200021334","name":"南方泉","en":"NanFang Quan"}},{"type":"Feature","geometry":{"type":"Point","coordinates":[120.460118,31.596981]},"properties":{"pname":"地铁2号线","pshort":"2号线","color":"00AB4F","ls":"900000029089","name":"无锡东站","en":"WuXi DongZhan"}},{"type":"Feature","geometry":{"type":"Point","coordinates":[120.454474,31.591617]},"properties":{"pname":"地铁2号线","pshort":"2号线","color":"00AB4F","ls":"900000029089","name":"迎宾广场","en":"YingBin GuangChang"}},{"type":"Feature","geometry":{"type":"Point","coordinates":[120.449698,31.587221]},"properties":{"pname":"地铁2号线","pshort":"2号线","color":"00AB4F","ls":"900000029089","name":"映月湖公园","en":"YingYueHu GongYuan"}},{"type":"Feature","geometry":{"type":"Point","coordinates":[120.431377,31.58112]},"properties":{"pname":"地铁2号线","pshort":"2号线","color":"00AB4F","ls":"900000029089","name":"查桥","en":"ZhaQiao"}},{"type":"Feature","geometry":{"type":"Point","coordinates":[120.408619,31.580374]},"properties":{"pname":"地铁2号线","pshort":"2号线","color":"00AB4F","ls":"900000029089","name":"九里河公园","en":"JiuLiHe GongYuan"}},{"type":"Feature","geometry":{"type":"Point","coordinates":[120.39503,31.579536]},"properties":{"pname":"地铁2号线","pshort":"2号线","color":"00AB4F","ls":"900000029089","name":"云林","en":"YunLin"}},{"type":"Feature","geometry":{"type":"Point","coordinates":[120.379073,31.578105]},"properties":{"pname":"地铁2号线","pshort":"2号线","color":"00AB4F","ls":"900000029089","name":"庄桥","en":"ZhuangQiao"}},{"type":"Feature","geometry":{"type":"Point","coordinates":[120.363665,31.582134]},"properties":{"pname":"地铁2号线","pshort":"2号线","color":"00AB4F","ls":"900000029089","name":"东亭","en":"DongTing"}},{"type":"Feature","geometry":{"type":"Point","coordinates":[120.351078,31.585997]},"properties":{"pname":"地铁2号线","pshort":"2号线","color":"00AB4F","ls":"900000029089","name":"柏庄","en":"BaiZhuang"}},{"type":"Feature","geometry":{"type":"Point","coordinates":[120.341347,31.586566]},"properties":{"pname":"地铁2号线","pshort":"2号线","color":"00AB4F","ls":"900000029089","name":"广益","en":"GuangYi"}},{"type":"Feature","geometry":{"type":"Point","coordinates":[120.330414,31.583353]},"properties":{"pname":"地铁2号线","pshort":"2号线","color":"00AB4F","ls":"900000029089","name":"靖海","en":"JingHai"}},{"type":"Feature","geometry":{"type":"Point","coordinates":[120.320767,31.582366]},"properties":{"pname":"地铁2号线","pshort":"2号线","color":"00AB4F","ls":"900000029089","name":"上马墩","en":"ShangMaDun"}},{"type":"Feature","geometry":{"type":"Point","coordinates":[120.308394,31.578479]},"properties":{"pname":"地铁2号线","pshort":"2号线","color":"00AB4F","ls":"900000029089","name":"东林广场","en":"DongLin GuangChang"}},{"type":"Feature","geometry":{"type":"Point","coordinates":[120.290551,31.573626]},"properties":{"pname":"地铁2号线","pshort":"2号线","color":"00AB4F","ls":"900000029089","name":"五爱广场","en":"WuAi GuangChang"}},{"type":"Feature","geometry":{"type":"Point","coordinates":[120.28637,31.567255]},"properties":{"pname":"地铁2号线","pshort":"2号线","color":"00AB4F","ls":"900000029089","name":"梁溪大桥","en":"LiangXi DaQiao"}},{"type":"Feature","geometry":{"type":"Point","coordinates":[120.275666,31.564803]},"properties":{"pname":"地铁2号线","pshort":"2号线","color":"00AB4F","ls":"900000029089","name":"大王基","en":"DaWangJi"}},{"type":"Feature","geometry":{"type":"Point","coordinates":[120.260863,31.562011]},"properties":{"pname":"地铁2号线","pshort":"2号线","color":"00AB4F","ls":"900000029089","name":"河埒口","en":"HeLie Kou"}},{"type":"Feature","geometry":{"type":"Point","coordinates":[120.24947,31.5592]},"properties":{"pname":"地铁2号线","pshort":"2号线","color":"00AB4F","ls":"900000029089","name":"小桃源","en":"Xiao TaoYuan"}},{"type":"Feature","geometry":{"type":"Point","coordinates":[120.236493,31.556647]},"properties":{"pname":"地铁2号线","pshort":"2号线","color":"00AB4F","ls":"900000029089","name":"荣巷","en":"RongXiang"}},{"type":"Feature","geometry":{"type":"Point","coordinates":[120.219585,31.550948]},"properties":{"pname":"地铁2号线","pshort":"2号线","color":"00AB4F","ls":"900000029089","name":"梅园开原寺","en":"MeiYuan KaiYuan Si"}},{"type":"Feature","geometry":{"type":"Point","coordinates":[120.21606,31.596784]},"properties":{"pname":"地铁3号线","pshort":"3号线","color":"01A2E2","ls":"320200021052","name":"苏庙","en":"SuMiao"}},{"type":"Feature","geometry":{"type":"Point","coordinates":[120.229675,31.596498]},"properties":{"pname":"地铁3号线","pshort":"3号线","color":"01A2E2","ls":"320200021052","name":"钱桥","en":"QianQiao"}},{"type":"Feature","geometry":{"type":"Point","coordinates":[120.244015,31.600118]},"properties":{"pname":"地铁3号线","pshort":"3号线","color":"01A2E2","ls":"320200021052","name":"龙山梢","en":"LongShan Shao"}},{"type":"Feature","geometry":{"type":"Point","coordinates":[120.259095,31.597377]},"properties":{"pname":"地铁3号线","pshort":"3号线","color":"01A2E2","ls":"320200021052","name":"石门路","en":"ShiMen Lu"}},{"type":"Feature","geometry":{"type":"Point","coordinates":[120.269868,31.592349]},"properties":{"pname":"地铁3号线","pshort":"3号线","color":"01A2E2","ls":"320200021052","name":"盛岸","en":"ShengAn"}},{"type":"Feature","geometry":{"type":"Point","coordinates":[120.285481,31.593777]},"properties":{"pname":"地铁3号线","pshort":"3号线","color":"01A2E2","ls":"320200021052","name":"吴桥","en":"WuQiao"}},{"type":"Feature","geometry":{"type":"Point","coordinates":[120.297117,31.59104]},"properties":{"pname":"地铁3号线","pshort":"3号线","color":"01A2E2","ls":"320200021052","name":"北栅口","en":"BeiCeKou"}},{"type":"Feature","geometry":{"type":"Point","coordinates":[120.319391,31.588852]},"properties":{"pname":"地铁3号线","pshort":"3号线","color":"01A2E2","ls":"320200021052","name":"广瑞","en":"GuangRui"}},{"type":"Feature","geometry":{"type":"Point","coordinates":[120.332308,31.573515]},"properties":{"pname":"地铁3号线","pshort":"3号线","color":"01A2E2","ls":"320200021052","name":"东风","en":"DongFeng"}},{"type":"Feature","geometry":{"type":"Point","coordinates":[120.337155,31.566238]},"properties":{"pname":"地铁3号线","pshort":"3号线","color":"01A2E2","ls":"320200021052","name":"叙丰","en":"XuFeng"}},{"type":"Feature","geometry":{"type":"Point","coordinates":[120.343983,31.559049]},"properties":{"pname":"地铁3号线","pshort":"3号线","color":"01A2E2","ls":"320200021052","name":"太湖花园","en":"TaiHu HuaYuan"}},{"type":"Feature","geometry":{"type":"Point","coordinates":[120.352475,31.549408]},"properties":{"pname":"地铁3号线","pshort":"3号线","color":"01A2E2","ls":"320200021052","name":"新光路","en":"XinGuang Lu"}},{"type":"Feature","geometry":{"type":"Point","coordinates":[120.357816,31.542129]},"properties":{"pname":"地铁3号线","pshort":"3号线","color":"01A2E2","ls":"320200021052","name":"旺庄路","en":"WangZhuang Lu"}},{"type":"Feature","geometry":{"type":"Point","coordinates":[120.369864,31.529726]},"properties":{"pname":"地铁3号线","pshort":"3号线","color":"01A2E2","ls":"320200021052","name":"黄山路","en":"HuangShan Lu"}},{"type":"Feature","geometry":{"type":"Point","coordinates":[120.376048,31.523336]},"properties":{"pname":"地铁3号线","pshort":"3号线","color":"01A2E2","ls":"320200021052","name":"高浪东路","en":"GaoLang DongLu"}},{"type":"Feature","geometry":{"type":"Point","coordinates":[120.385582,31.513717]},"properties":{"pname":"地铁3号线","pshort":"3号线","color":"01A2E2","ls":"320200021052","name":"周泾巷","en":"ZhouJing Xiang"}},{"type":"Feature","geometry":{"type":"Point","coordinates":[120.392141,31.499378]},"properties":{"pname":"地铁3号线","pshort":"3号线","color":"01A2E2","ls":"320200021052","name":"无锡新区","en":"WuXi XinQu"}},{"type":"Feature","geometry":{"type":"Point","coordinates":[120.403221,31.49739]},"properties":{"pname":"地铁3号线","pshort":"3号线","color":"01A2E2","ls":"320200021052","name":"长江南路","en":"ChangJiang NanLu"}},{"type":"Feature","geometry":{"type":"Point","coordinates":[120.430807,31.502584]},"properties":{"pname":"地铁3号线","pshort":"3号线","color":"01A2E2","ls":"320200021052","name":"硕放机场","en":"ShuoFang JiChang"}}]}